Date/Time,Latitude,Longitude,Temperature,Humidity,Pressure,Compass,MagX,MagY,MagZ,Pitch,Roll,Yaw,AccelX,AccelY,AccelZ,R,G,B,C,Motion
2022-01-18 16:44:44.714602,-47.762,-72.459,36.9,53.6,1024.1,67.1,1.8,-4.4,-6.3,360.0,360.0,67.0,0.0,-0.0,-0.0,0,0,0,0,0
2022-01-18 16:44:49.909244,-47.63,-72.025,36.8,53.1,1024.1,67.1,3.8,-8.6,-12.8,360.0,360.0,67.0,0.0,0.0,-0.0,0,0,0,0,0
2022-01-18 16:44:55.028463,-47.499,-71.6,36.8,52.9,1024.1,67.0,4.3,-10.3,-15.7,360.0,360.0,67.0,0.0,0.0,-0.0,0,0,0,0,0
2022-01-18 16:45:00.118279,-47.366,-71.179,36.7,53.0,1024.1,67.0,4.8,-10.9,-16.9,360.0,360.0,67.0,0.0,0.0,-0.0,0,0,0,0,0
2022-01-18 16:45:05.238078,-47.231,-70.758,36.9,52.8,1024.1,67.0,4.8,-11.0,-17.3,360.0,360.0,67.0,0.0,0.0,-0.0,0,0,0,0,0
2022-01-18 16:45:10.358493,-47.094,-70.34,36.8,53.0,1024.1,67.0,4.7,-11.1,-17.9,360.0,360.0,67.0,0.0,0.0,-0.0,0,0,0,0,0
2022-01-18 16:45:15.471468,-46.956,-69.924,36.8,53.2,1024.1,67.0,4.6,-11.2,-18.1,360.0,360.0,67.0,0.0,0.0,-0.0,0,0,0,0,0
2022-01-18 16:45:20.555190,-46.817,-69.513,36.8,53.2,1024.0,67.0,4.5,-11.3,-18.1,360.0,360.0,67.0,0.0,0.0,-0.0,0,0,0,0,0
2022-01-18 16:45:25.679059,-46.675,-69.1,36.9,53.1,1024.0,67.1,4.4,-11.1,-17.4,360.0,360.0,67.0,0.0,0.0,-0.0,0,0,0,0,0
2022-01-18 16:45:30.748816,-46.533,-68.695,36.9,53.0,1024.1,67.1,4.6,-11.0,-17.4,360.0,360.0,67.0,0.0,0.0,-0.0,0,0,0,0,0
2022-01-18 16:45:35.825704,-46.389,-68.291,36.9,53.1,1024.1,67.1,4.7,-11.0,-17.2,360.0,360.0,67.0,0.0,0.0,-0.0,0,0,0,0,0
2022-01-18 16:45:40.894791,-46.244,-67.89,36.8,53.2,1024.1,67.1,4.7,-11.1,-17.2,360.0,360.0,67.0,0.0,-0.0,-0.0,0,0,0,0,0
2022-01-18 16:45:45.963900,-46.097,-67.491,36.9,53.1,1024.1,67.1,4.4,-11.0,-17.3,360.0,360.0,67.0,0.0,0.0,-0.0,0,0,0,0,0
2022-01-18 16:45:51.067843,-45.948,-67.091,36.8,53.0,1024.1,67.2,4.5,-10.8,-16.3,360.0,360.0,67.0,0.0,0.0,-0.0,0,0,0,0,0
2022-01-18 16:45:56.176372,-45.797,-66.694,36.9,53.0,1024.1,67.2,5.0,-10.8,-16.4,360.0,360.0,67.0,0.0,0.0,-0.0,0,0,0,0,0
2022-01-18 16:46:01.286010,-45.644,-66.298,36.9,53.1,1024.1,67.1,4.7,-11.0,-17.1,360.0,360.0,67.0,0.0,0.1,-0.0,0,0,0,0,0
2022-01-18 16:46:06.422076,-45.49,-65.903,36.8,53.0,1024.1,67.1,4.7,-11.1,-17.2,360.0,360.0,67.0,0.0,0.0,-0.0,0,0,0,0,0
2022-01-18 16:46:11.535695,-45.334,-65.512,36.9,53.0,1024.1,67.1,4.8,-10.6,-17.2,360.0,360.0,67.0,0.0,0.1,-0.0,0,0,0,0,0
2022-01-18 16:46:16.606142,-45.178,-65.127,36.8,52.8,1024.1,67.0,4.6,-10.8,-16.5,360.0,360.0,67.0,0.0,0.0,-0.0,0,0,0,0,0
2022-01-18 16:46:21.717693,-45.019,-64.74,36.8,53.2,1024.1,67.0,4.6,-10.9,-15.9,360.0,360.0,67.0,0.0,0.0,-0.0,0,0,0,0,0
2022-01-18 16:46:26.795128,-44.861,-64.358,36.9,53.1,1024.1,67.0,4.5,-11.2,-16.1,360.0,360.0,67.0,0.0,0.0,-0.0,0,0,0,0,0
2022-01-18 16:46:31.918555,-44.699,-63.976,36.9,53.1,1024.1,67.1,4.3,-11.0,-16.4,360.0,360.0,67.0,0.0,0.0,-0.0,0,0,0,0,0
2022-01-18 16:46:36.987692,-44.537,-63.599,36.9,53.1,1024.1,67.2,4.0,-11.1,-16.5,360.0,360.0,67.0,0.0,0.0,-0.0,0,0,0,0,0
2022-01-18 16:46:42.114242,-44.373,-63.22,36.9,53.2,1024.1,67.3,3.9,-10.6,-16.5,360.0,360.0,67.0,0.0,0.0,-0.0,0,0,0,0,0
2022-01-18 16:46:47.230333,-44.207,-62.845,36.9,53.1,1024.1,67.4,4.2,-10.6,-16.5,360.0,360.0,67.0,0.0,-0.0,-0.0,0,0,0,0,0
2022-01-18 16:46:52.356560,-44.039,-62.47,36.9,53.0,1024.1,67.4,4.3,-10.5,-16.4,360.0,360.0,67.0,0.0,0.0,-0.0,0,0,0,0,0
2022-01-18 16:46:57.459095,-43.871,-62.1,36.8,53.0,1024.1,67.4,4.2,-10.3,-16.4,360.0,360.0,67.0,0.0,0.0,-0.0,0,0,0,0,0
2022-01-18 16:47:02.546566,-43.702,-61.733,36.8,52.7,1024.2,67.5,3.8,-10.4,-16.5,360.0,360.0,68.0,0.0,-0.0,-0.0,0,0,0,0,0
2022-01-18 16:47:07.654401,-43.531,-61.367,36.9,52.8,1024.1,67.6,3.8,-10.4,-15.9,360.0,360.0,68.0,0.0,0.0,-0.0,0,0,0,0,0
2022-01-18 16:47:12.735735,-43.36,-61.005,36.9,53.2,1024.2,67.7,3.9,-10.9,-15.9,360.0,360.0,68.0,0.0,0.0,-0.0,0,0,0,0,0
2022-01-18 16:47:17.914386,-43.184,-60.638,36.9,53.0,1024.1,67.8,3.8,-10.1,-16.1,360.0,360.0,68.0,0.0,0.0,-0.0,0,0,0,0,0
2022-01-18 16:47:22.987832,-43.01,-60.28,36.9,53.0,1024.1,67.9,4.0,-10.2,-15.8,360.0,360.0,68.0,0.0,-0.0,-0.0,0,0,0,0,0
2022-01-18 16:47:28.104195,-42.834,-59.922,37.0,53.2,1024.1,67.9,3.9,-10.1,-15.6,360.0,360.0,68.0,0.0,0.0,-0.0,0,0,0,0,0
2022-01-18 16:47:33.185943,-42.658,-59.569,37.0,53.0,1024.1,68.0,4.1,-10.3,-15.7,360.0,360.0,68.0,0.0,0.0,-0.0,0,0,0,0,0
2022-01-18 16:47:38.299522,-42.479,-59.215,36.9,53.0,1024.1,68.0,4.0,-10.4,-15.8,360.0,360.0,68.0,0.0,0.0,-0.0,0,0,0,0,0
2022-01-18 16:47:43.420803,-42.299,-58.863,37.0,52.7,1024.1,68.0,4.2,-10.4,-15.8,360.0,360.0,68.0,0.0,0.0,-0.0,0,0,0,0,0
2022-01-18 16:47:48.527838,-42.118,-58.514,37.0,53.0,1024.1,68.0,3.9,-10.3,-15.8,360.0,360.0,68.0,0.0,0.0,-0.0,0,0,0,0,0
2022-01-18 16:47:53.645368,-41.935,-58.166,37.0,53.1,1024.2,68.1,3.8,-10.3,-15.4,360.0,360.0,68.0,0.0,-0.0,-0.0,0,0,0,0,0
2022-01-18 16:47:58.754017,-41.752,-57.821,37.1,53.2,1024.1,68.2,4.0,-10.4,-15.0,360.0,360.0,68.0,0.0,0.0,-0.0,0,0,0,0,0
2022-01-18 16:48:03.870837,-41.567,-57.478,37.0,53.0,1024.1,68.2,3.9,-10.2,-15.0,360.0,360.0,68.0,0.0,0.0,-0.0,0,0,0,0,0
2022-01-18 16:48:08.948107,-41.382,-57.139,37.0,53.0,1024.1,68.2,3.8,-10.2,-15.2,360.0,360.0,68.0,0.0,0.0,-0.0,0,0,0,0,0
2022-01-18 16:48:14.060044,-41.195,-56.8,37.1,53.0,1024.1,68.3,3.7,-10.4,-15.2,360.0,360.0,68.0,0.0,0.0,-0.0,0,0,0,0,0
2022-01-18 16:48:19.137776,-41.008,-56.465,37.1,53.2,1024.1,68.4,3.7,-10.5,-15.3,360.0,360.0,68.0,0.0,0.0,-0.0,0,0,0,0,0
2022-01-18 16:48:24.214345,-40.82,-56.133,37.1,53.1,1024.1,68.5,4.0,-10.8,-15.0,360.0,360.0,68.0,0.0,0.0,-0.0,0,0,0,0,0
2022-01-18 16:48:29.326754,-40.63,-55.8,37.0,52.9,1024.1,68.5,3.9,-10.8,-15.4,360.0,360.0,69.0,0.0,0.0,-0.0,0,0,0,0,0
2022-01-18 16:48:34.443337,-40.438,-55.469,37.1,53.1,1024.1,68.6,3.9,-10.8,-15.7,360.0,360.0,69.0,0.0,0.0,-0.0,0,0,0,0,0
2022-01-18 16:48:39.563318,-40.246,-55.139,37.1,53.1,1024.1,68.7,3.6,-10.9,-15.3,360.0,360.0,69.0,0.0,0.0,-0.0,0,0,0,0,0
2022-01-18 16:48:44.684137,-40.052,-54.812,37.0,52.8,1024.1,68.8,3.5,-10.7,-15.4,360.0,360.0,69.0,0.0,0.0,-0.0,0,0,0,0,0
2022-01-18 16:48:49.807401,-39.857,-54.486,37.1,53.2,1024.1,68.9,3.6,-10.2,-15.2,360.0,360.0,69.0,0.0,0.0,-0.0,0,0,0,0,0
2022-01-18 16:48:54.887263,-39.662,-54.165,37.1,53.0,1024.1,69.0,3.7,-10.2,-14.7,360.0,360.0,69.0,0.0,0.0,-0.0,0,0,0,0,0
2022-01-18 16:48:59.999514,-39.466,-53.844,37.1,52.9,1024.1,69.0,3.7,-10.2,-14.6,360.0,360.0,69.0,0.0,0.0,-0.0,0,0,0,0,0
2022-01-18 16:49:05.072647,-39.269,-53.527,37.1,53.0,1024.1,69.1,3.6,-10.2,-14.8,360.0,360.0,69.0,0.0,0.0,-0.0,0,0,0,0,0
2022-01-18 16:49:10.196558,-39.07,-53.209,37.1,53.2,1024.1,69.1,3.6,-10.2,-15.0,360.0,360.0,69.0,0.0,0.0,-0.0,0,0,0,0,0
2022-01-18 16:49:15.272624,-38.872,-52.896,37.1,53.1,1024.1,69.2,3.4,-10.5,-15.0,360.0,360.0,69.0,0.0,0.0,-0.0,0,0,0,0,1
2022-01-18 16:49:20.394408,-38.671,-52.582,37.1,53.0,1024.2,69.3,3.4,-10.7,-14.7,360.0,360.0,69.0,0.0,0.0,-0.0,0,0,0,0,1
2022-01-18 16:49:25.519571,-38.469,-52.269,37.1,52.9,1024.2,69.5,3.4,-10.6,-14.4,360.0,360.0,70.0,0.0,0.0,-0.0,0,0,0,0,1
2022-01-18 16:49:30.639537,-38.266,-51.959,37.1,52.8,1024.2,69.6,3.6,-10.4,-14.7,360.0,360.0,70.0,0.0,0.0,-0.0,0,0,0,0,1
2022-01-18 16:49:35.762570,-38.062,-51.65,37.2,53.1,1024.2,69.6,3.3,-10.7,-14.8,360.0,360.0,70.0,0.0,0.0,-0.0,0,0,0,0,1
2022-01-18 16:49:40.849265,-37.859,-51.345,37.3,52.7,1024.1,69.8,3.3,-10.5,-14.8,360.0,360.0,70.0,0.0,0.0,-0.0,0,0,0,0,1
2022-01-18 16:49:45.967827,-37.653,-51.041,37.2,53.1,1024.1,69.9,3.3,-10.1,-14.4,360.0,360.0,70.0,0.0,0.0,-0.0,0,0,0,0,1
2022-01-18 16:49:51.037835,-37.448,-50.74,37.3,53.0,1024.1,69.9,3.4,-10.0,-14.4,360.0,360.0,70.0,0.0,0.0,-0.0,0,0,0,0,1
2022-01-18 16:49:56.157794,-37.241,-50.439,37.2,52.9,1024.2,70.0,3.1,-9.9,-14.2,360.0,360.0,70.0,0.0,0.0,-0.0,0,0,0,0,1
2022-01-18 16:50:01.231462,-37.035,-50.142,37.2,52.9,1024.1,70.1,3.0,-9.6,-14.3,360.0,360.0,70.0,0.0,-0.0,-0.0,0,0,0,0,1
2022-01-18 16:50:06.343469,-36.826,-49.845,37.2,53.1,1024.1,70.2,3.0,-9.8,-13.8,360.0,360.0,70.0,0.0,0.0,-0.0,0,0,0,1,0
2022-01-18 16:50:11.413187,-36.618,-49.552,37.3,53.2,1024.1,70.4,2.8,-10.0,-14.2,360.0,360.0,70.0,0.0,0.0,-0.0,0,0,0,1,1
2022-01-18 16:50:16.534882,-36.407,-49.257,37.2,53.0,1024.1,70.5,2.8,-10.0,-14.6,360.0,360.0,71.0,0.0,0.0,-0.0,0,0,0,1,1
2022-01-18 16:50:21.657852,-36.195,-48.964,37.3,52.9,1024.1,70.7,2.9,-9.8,-14.8,360.0,360.0,71.0,0.0,-0.0,-0.0,0,0,0,1,1
2022-01-18 16:50:26.771066,-35.982,-48.673,37.2,52.8,1024.1,70.8,3.0,-10.1,-14.8,360.0,360.0,71.0,0.0,0.0,-0.0,0,0,0,1,0
2022-01-18 16:50:31.887820,-35.769,-48.384,37.2,53.0,1024.2,70.9,3.1,-10.2,-14.2,360.0,360.0,71.0,0.0,0.0,-0.0,0,0,0,1,0
2022-01-18 16:50:36.968829,-35.557,-48.099,37.2,52.8,1024.1,71.0,2.7,-9.9,-14.0,360.0,360.0,71.0,0.0,0.0,-0.0,0,0,0,1,0
2022-01-18 16:50:42.094199,-35.341,-47.812,37.3,52.9,1024.1,71.1,3.1,-9.9,-14.0,360.0,360.0,71.0,0.0,0.0,-0.0,0,0,0,1,0
2022-01-18 16:50:47.167995,-35.128,-47.53,37.2,52.9,1024.1,71.2,3.0,-10.0,-14.2,360.0,360.0,71.0,0.0,0.0,-0.0,0,0,0,1,1
2022-01-18 16:50:52.290136,-34.911,-47.247,37.2,52.8,1024.1,71.3,2.9,-9.9,-13.8,360.0,360.0,71.0,0.0,-0.0,-0.0,0,0,0,1,1
2022-01-18 16:50:57.366491,-34.695,-46.968,37.3,52.9,1024.1,71.4,2.7,-10.0,-14.1,360.0,360.0,71.0,0.0,0.0,-0.0,0,0,0,1,1
2022-01-18 16:51:02.435665,-34.479,-46.691,37.4,52.9,1024.1,71.6,2.7,-9.9,-14.2,360.0,360.0,72.0,0.0,-0.0,-0.0,0,0,0,1,1
2022-01-18 16:51:07.556818,-34.261,-46.413,37.4,53.0,1024.1,71.7,2.6,-10.0,-14.5,360.0,360.0,72.0,0.0,0.0,-0.0,0,0,0,0,0
2022-01-18 16:51:12.677554,-34.041,-46.136,37.3,52.8,1024.1,71.8,2.6,-10.1,-14.9,360.0,360.0,72.0,0.0,0.0,-0.0,0,0,0,0,0
2022-01-18 16:51:17.797668,-33.821,-45.861,37.3,52.9,1024.1,72.0,2.7,-10.2,-14.7,360.0,360.0,72.0,0.0,0.0,-0.0,0,0,0,0,0
2022-01-18 16:51:22.889506,-33.601,-45.589,37.2,53.1,1024.1,72.1,2.5,-10.1,-14.5,360.0,360.0,72.0,0.0,0.0,-0.0,0,0,0,0,0
2022-01-18 16:51:28.001399,-33.38,-45.317,37.4,52.9,1024.1,72.3,2.7,-10.0,-13.6,360.0,360.0,72.0,0.0,0.0,-0.0,0,0,0,0,1
2022-01-18 16:51:33.074420,-33.159,-45.049,37.4,53.1,1024.2,72.4,2.7,-9.9,-13.9,360.0,360.0,72.0,0.0,0.0,-0.0,0,0,0,0,1
2022-01-18 16:51:38.197800,-32.936,-44.779,37.4,53.0,1024.1,72.5,2.3,-9.7,-14.4,360.0,360.0,73.0,0.0,-0.0,-0.0,0,0,0,0,1
2022-01-18 16:51:43.274220,-32.714,-44.514,37.3,52.9,1024.2,72.7,2.4,-9.9,-14.4,360.0,360.0,73.0,0.0,0.0,-0.0,0,0,0,0,1
2022-01-18 16:51:48.385674,-32.49,-44.248,37.4,52.6,1024.2,72.8,2.2,-9.8,-14.6,360.0,360.0,73.0,0.0,0.0,-0.0,0,0,0,0,1
2022-01-18 16:51:53.459658,-32.267,-43.985,37.3,52.9,1024.2,73.0,2.2,-9.5,-14.8,360.0,360.0,73.0,0.0,-0.0,-0.0,0,0,0,0,1
2022-01-18 16:51:58.581103,-32.041,-43.722,37.4,54.1,1024.2,73.2,2.1,-9.8,-14.8,360.0,360.0,73.0,0.0,0.0,-0.0,0,0,0,0,0
2022-01-18 16:52:03.695315,-31.815,-43.46,37.3,52.8,1024.1,73.4,1.3,-9.9,-14.5,360.0,360.0,74.0,0.0,0.0,-0.0,0,0,0,0,0
2022-01-18 16:52:08.808537,-31.588,-43.199,37.5,52.9,1024.1,73.7,1.4,-9.7,-14.3,360.0,360.0,74.0,0.0,0.1,-0.0,0,0,0,0,0
2022-01-18 16:52:14.000028,-31.357,-42.936,37.4,52.9,1024.1,74.0,1.7,-10.1,-14.6,360.0,360.0,74.0,0.0,0.0,-0.0,0,0,0,0,0
2022-01-18 16:52:19.075328,-31.131,-42.681,37.4,52.9,1024.1,74.3,1.7,-10.1,-14.8,360.0,360.0,74.0,0.0,0.1,-0.0,0,0,0,0,0
2022-01-18 16:52:24.187836,-30.902,-42.424,37.4,52.9,1024.2,74.5,1.7,-10.0,-14.3,360.0,360.0,75.0,0.0,0.0,-0.0,0,0,0,0,0
2022-01-18 16:52:29.257553,-30.675,-42.171,37.4,52.8,1024.2,74.8,2.0,-10.3,-14.2,360.0,360.0,75.0,0.0,0.0,-0.0,0,0,0,0,0
2022-01-18 16:52:34.377878,-30.445,-41.917,37.4,52.8,1024.1,74.9,1.9,-10.4,-14.5,360.0,360.0,75.0,0.0,0.1,-0.0,0,0,0,0,0
2022-01-18 16:52:39.448466,-30.216,-41.667,37.5,52.8,1024.1,75.1,2.5,-10.3,-14.4,360.0,360.0,75.0,0.0,0.0,-0.0,0,0,0,0,0
2022-01-18 16:52:44.517500,-29.987,-41.417,37.5,53.0,1024.2,75.1,2.4,-10.0,-14.5,360.0,360.0,75.0,0.0,0.0,-0.0,0,0,0,0,0
2022-01-18 16:52:49.636544,-29.755,-41.167,37.4,53.1,1024.1,75.2,2.1,-10.3,-14.3,360.0,360.0,75.0,0.0,0.0,-0.0,0,0,0,0,1
2022-01-18 16:52:54.749033,-29.523,-40.918,37.4,52.8,1024.2,75.3,2.0,-9.9,-14.2,360.0,360.0,75.0,0.0,0.0,-0.0,0,0,0,0,1
2022-01-18 16:52:59.861095,-29.29,-40.671,37.4,52.6,1024.2,75.5,1.9,-10.0,-13.7,360.0,360.0,76.0,0.0,0.0,-0.0,0,0,0,0,0
2022-01-18 16:53:04.932700,-29.059,-40.426,37.4,52.8,1024.2,75.7,1.7,-10.3,-13.8,360.0,360.0,76.0,0.0,0.0,-0.0,0,0,0,0,0
2022-01-18 16:53:10.044338,-28.825,-40.181,37.4,52.9,1024.2,75.9,1.6,-9.8,-13.9,360.0,360.0,76.0,0.0,0.0,-0.0,0,0,0,0,0
2022-01-18 16:53:15.117469,-28.593,-39.939,37.4,52.9,1024.2,76.1,1.7,-10.2,-14.0,360.0,360.0,76.0,0.0,-0.0,-0.0,0,0,0,0,0
2022-01-18 16:53:20.239999,-28.358,-39.696,37.4,52.8,1024.2,76.2,2.0,-10.3,-14.2,360.0,360.0,76.0,0.0,0.0,-0.0,0,0,0,0,0
2022-01-18 16:53:25.313865,-28.124,-39.456,37.5,52.8,1024.2,76.3,2.1,-10.0,-14.7,360.0,360.0,76.0,0.0,0.0,-0.0,0,0,0,0,0
2022-01-18 16:53:30.436666,-27.888,-39.215,37.3,52.8,1024.2,76.4,2.4,-10.2,-14.5,360.0,360.0,76.0,0.0,0.0,-0.0,0,0,0,0,0
2022-01-18 16:53:35.514294,-27.653,-38.977,37.6,52.8,1024.1,76.4,2.5,-10.1,-14.5,360.0,360.0,76.0,0.0,0.0,-0.0,0,0,0,0,0
2022-01-18 16:53:40.624002,-27.416,-38.739,37.5,52.6,1024.2,76.4,2.5,-10.1,-14.9,360.0,360.0,76.0,0.0,0.0,-0.0,0,0,0,0,1
2022-01-18 16:53:45.744056,-27.178,-38.502,37.5,52.7,1024.2,76.4,2.3,-10.2,-15.5,360.0,360.0,76.0,0.0,0.0,-0.0,0,0,0,0,0
2022-01-18 16:53:50.865870,-26.94,-38.265,37.5,53.7,1024.2,76.4,2.4,-9.9,-15.2,360.0,360.0,76.0,0.0,0.0,-0.0,0,0,0,0,0
2022-01-18 16:53:55.980085,-26.702,-38.03,37.6,52.6,1024.2,76.4,2.3,-9.9,-15.1,360.0,360.0,76.0,0.0,0.0,-0.0,0,0,0,0,0
2022-01-18 16:54:01.095468,-26.463,-37.796,37.5,52.8,1024.2,76.4,2.2,-10.1,-15.4,360.0,360.0,76.0,0.0,-0.0,-0.0,0,0,0,0,0
2022-01-18 16:54:06.205976,-26.224,-37.563,37.5,52.7,1024.2,76.5,2.1,-10.4,-14.9,360.0,360.0,77.0,0.0,-0.0,-0.0,0,0,0,0,0
2022-01-18 16:54:11.286318,-25.985,-37.332,37.5,52.7,1024.2,76.6,2.0,-10.5,-14.5,360.0,360.0,77.0,0.0,0.0,-0.0,0,0,0,0,0
2022-01-18 16:54:16.404401,-25.745,-37.101,37.5,52.7,1024.2,76.6,2.2,-10.4,-14.6,360.0,360.0,77.0,0.0,0.0,-0.0,0,0,0,0,0
2022-01-18 16:54:21.480267,-25.506,-36.873,37.6,52.7,1024.2,76.7,2.1,-10.1,-15.1,360.0,360.0,77.0,0.0,0.0,-0.0,0,0,0,0,0
2022-01-18 16:54:26.552825,-25.267,-36.646,37.6,52.7,1024.2,76.8,2.1,-10.1,-15.2,360.0,360.0,77.0,0.0,0.0,-0.0,0,0,0,0,0
2022-01-18 16:54:31.665965,-25.025,-36.418,37.6,53.0,1024.1,76.8,2.0,-10.2,-15.1,360.0,360.0,77.0,0.0,-0.1,-0.0,0,0,0,0,0
2022-01-18 16:54:36.796828,-24.782,-36.19,37.5,52.6,1024.1,76.9,1.9,-10.1,-14.8,360.0,360.0,77.0,0.0,0.0,-0.0,0,0,0,0,0
2022-01-18 16:54:41.919722,-24.54,-35.964,37.5,52.7,1024.2,77.0,2.1,-10.3,-15.0,360.0,360.0,77.0,0.0,0.0,-0.0,0,0,0,0,0
2022-01-18 16:54:46.994394,-24.299,-35.74,37.6,53.1,1024.2,77.1,2.2,-10.8,-15.1,360.0,360.0,77.0,0.0,0.0,-0.0,0,0,0,0,0
2022-01-18 16:54:52.117841,-24.055,-35.516,37.5,52.8,1024.2,77.1,2.4,-10.4,-14.8,360.0,360.0,77.0,0.0,0.0,-0.0,0,0,0,0,0
2022-01-18 16:54:57.187699,-23.813,-35.294,37.6,52.6,1024.2,77.1,2.3,-10.4,-14.6,360.0,360.0,77.0,0.0,0.0,-0.0,0,0,0,0,0
2022-01-18 16:55:02.305200,-23.569,-35.072,37.4,52.7,1024.2,77.1,2.5,-10.3,-15.0,360.0,360.0,77.0,0.0,0.0,-0.0,0,0,0,0,0
2022-01-18 16:55:07.384726,-23.326,-34.852,37.7,52.8,1024.2,77.1,2.7,-10.4,-15.0,360.0,360.0,77.0,0.0,0.0,-0.0,0,0,0,0,0
2022-01-18 16:55:12.461152,-23.083,-34.633,37.6,52.7,1024.2,77.0,2.7,-10.2,-15.0,360.0,360.0,77.0,0.0,0.0,-0.0,0,0,0,0,0
2022-01-18 16:55:17.578859,-22.838,-34.413,37.6,52.6,1024.2,77.0,2.6,-10.5,-14.5,360.0,360.0,77.0,0.0,-0.0,-0.0,0,0,0,0,0
2022-01-18 16:55:22.765063,-22.589,-34.191,37.6,52.6,1024.2,76.9,2.5,-10.7,-14.5,360.0,360.0,77.0,0.0,0.0,-0.0,0,0,0,0,0
2022-01-18 16:55:27.878352,-22.343,-33.973,37.6,52.7,1024.2,77.0,2.3,-10.5,-14.5,360.0,360.0,77.0,0.0,0.1,-0.0,0,0,0,0,0
2022-01-18 16:55:32.952196,-22.098,-33.757,37.5,52.7,1024.3,77.0,2.3,-10.4,-14.8,360.0,360.0,77.0,0.0,-0.1,-0.0,0,0,0,0,0
2022-01-18 16:55:38.065276,-21.852,-33.541,37.6,52.9,1024.2,77.0,2.5,-10.7,-15.1,360.0,360.0,77.0,0.0,-0.0,-0.0,0,0,0,0,0
2022-01-18 16:55:43.133740,-21.607,-33.327,37.6,52.5,1024.2,77.0,2.3,-10.7,-15.5,360.0,360.0,77.0,0.0,0.0,-0.0,0,0,0,0,1
2022-01-18 16:55:48.207577,-21.361,-33.114,37.6,52.6,1024.3,77.1,2.2,-10.8,-15.4,360.0,360.0,77.0,0.0,0.0,-0.0,0,0,0,0,1
2022-01-18 16:55:53.317822,-21.114,-32.9,37.5,52.7,1024.2,77.1,2.3,-11.1,-15.2,360.0,360.0,77.0,0.0,0.0,-0.0,0,0,0,0,1
2022-01-18 16:55:58.439145,-20.865,-32.687,37.7,52.7,1024.3,77.1,2.5,-10.6,-15.5,360.0,360.0,77.0,0.0,0.0,-0.0,0,0,0,0,1
2022-01-18 16:56:03.559876,-20.617,-32.474,37.6,52.7,1024.2,77.1,2.3,-10.6,-15.8,360.0,360.0,77.0,0.0,0.0,-0.0,0,0,0,0,1
2022-01-18 16:56:08.665346,-20.368,-32.262,37.6,52.5,1024.2,77.2,2.2,-10.4,-15.6,360.0,360.0,77.0,0.0,0.0,-0.0,0,0,0,0,1
2022-01-18 16:56:13.786232,-20.119,-32.051,37.6,52.4,1024.2,77.2,2.3,-10.4,-15.4,360.0,360.0,77.0,0.0,0.0,-0.0,0,0,0,0,1
2022-01-18 16:56:18.865031,-19.871,-31.842,37.7,52.7,1024.2,77.2,2.4,-10.4,-15.3,360.0,360.0,77.0,0.0,0.0,-0.0,0,0,0,0,0
2022-01-18 16:56:23.984868,-19.621,-31.633,37.7,52.6,1024.3,77.2,2.2,-10.5,-15.1,360.0,360.0,77.0,0.0,0.0,-0.0,0,0,0,0,0
2022-01-18 16:56:29.059131,-19.373,-31.425,37.6,52.5,1024.2,77.3,2.2,-10.8,-15.3,360.0,360.0,77.0,0.0,0.0,-0.0,0,0,0,0,0
2022-01-18 16:56:34.183772,-19.123,-31.217,37.7,52.5,1024.2,77.3,2.0,-11.0,-15.9,360.0,360.0,77.0,0.0,0.0,-0.0,0,0,0,0,0
2022-01-18 16:56:39.256384,-18.874,-31.011,37.7,52.6,1024.3,77.4,1.9,-11.0,-15.9,360.0,360.0,77.0,0.0,-0.0,-0.0,0,0,0,0,0
2022-01-18 16:56:44.335935,-18.625,-30.805,37.6,52.8,1024.3,77.5,2.1,-10.8,-15.6,360.0,360.0,78.0,0.0,0.0,-0.0,0,0,0,0,0
2022-01-18 16:56:49.447811,-18.374,-30.599,37.7,52.8,1024.2,77.6,2.1,-10.6,-15.6,360.0,360.0,78.0,0.0,0.0,-0.0,0,0,0,0,0
2022-01-18 16:56:54.563555,-18.122,-30.394,37.7,52.9,1024.3,77.6,2.5,-10.6,-15.8,360.0,360.0,78.0,0.0,0.0,-0.0,0,0,0,0,0
2022-01-18 16:56:59.676831,-17.871,-30.189,37.6,52.9,1024.3,77.6,2.3,-10.4,-15.6,360.0,360.0,78.0,0.0,0.0,-0.0,0,0,0,0,0
2022-01-18 16:57:04.755071,-17.62,-29.986,37.6,52.6,1024.2,77.6,2.3,-10.3,-15.2,360.0,360.0,78.0,0.0,0.0,-0.0,0,0,0,0,0
2022-01-18 16:57:09.868876,-17.368,-29.783,37.6,52.6,1024.2,77.6,2.1,-10.6,-15.0,360.0,360.0,78.0,0.0,-0.0,-0.0,0,0,0,0,0
2022-01-18 16:57:14.946830,-17.117,-29.581,37.7,52.5,1024.3,77.6,2.3,-10.7,-14.5,360.0,360.0,78.0,0.0,0.0,-0.0,0,0,0,0,0
2022-01-18 16:57:20.057812,-16.865,-29.379,37.6,52.4,1024.2,77.6,2.2,-10.9,-14.8,360.0,360.0,78.0,0.0,0.0,-0.0,0,0,0,0,0
2022-01-18 16:57:25.127824,-16.614,-29.179,37.7,52.7,1024.3,77.7,2.3,-10.9,-15.0,360.0,360.0,78.0,0.0,0.0,-0.0,0,0,0,0,0
2022-01-18 16:57:30.245563,-16.36,-28.977,37.7,52.5,1024.2,77.7,2.5,-10.7,-15.3,360.0,360.0,78.0,0.0,0.0,-0.0,0,0,0,0,0
2022-01-18 16:57:35.321345,-16.109,-28.778,37.7,52.6,1024.2,77.6,2.6,-10.6,-15.5,360.0,360.0,78.0,0.0,0.0,-0.0,0,0,0,0,0
2022-01-18 16:57:40.437822,-15.855,-28.578,37.7,52.7,1024.2,77.6,2.7,-11.0,-16.0,360.0,360.0,78.0,0.0,0.0,-0.0,0,0,0,0,0
2022-01-18 16:57:45.557859,-15.601,-28.378,37.7,52.5,1024.2,77.5,2.9,-10.8,-16.0,360.0,360.0,77.0,0.0,0.0,-0.0,0,0,0,0,0
2022-01-18 16:57:50.687073,-15.346,-28.178,37.7,52.6,1024.2,77.4,2.8,-11.1,-16.0,360.0,360.0,77.0,0.0,0.0,-0.0,0,0,0,0,0
2022-01-18 16:57:55.807817,-15.091,-27.98,37.6,52.5,1024.3,77.3,2.9,-10.9,-15.6,360.0,360.0,77.0,0.0,0.1,-0.0,0,0,0,0,0
2022-01-18 16:58:00.880961,-14.838,-27.783,37.7,52.6,1024.3,77.3,2.7,-11.0,-15.4,360.0,360.0,77.0,0.0,-0.0,-0.0,0,0,0,0,0
2022-01-18 16:58:06.005121,-14.583,-27.585,37.6,52.4,1024.3,77.2,2.8,-11.1,-15.0,360.0,360.0,77.0,0.0,0.0,-0.0,0,0,0,0,0
2022-01-18 16:58:11.078083,-14.33,-27.39,37.7,52.6,1024.3,77.2,2.9,-10.9,-14.9,360.0,360.0,77.0,0.0,0.0,-0.0,0,0,0,0,0
2022-01-18 16:58:16.196299,-14.074,-27.193,37.7,52.6,1024.3,77.1,3.0,-11.0,-15.2,360.0,360.0,77.0,0.0,-0.1,-0.0,0,0,0,0,0
2022-01-18 16:58:21.262599,-13.821,-26.999,37.7,52.4,1024.3,77.0,2.9,-11.0,-15.2,360.0,360.0,77.0,0.0,0.0,-0.0,0,0,0,0,0
2022-01-18 16:58:26.347228,-13.567,-26.804,37.8,52.4,1024.3,76.9,3.1,-11.2,-15.1,360.0,360.0,77.0,0.0,-0.0,-0.0,0,0,0,0,0
2022-01-18 16:58:31.459631,-13.311,-26.609,37.8,52.6,1024.3,76.8,3.5,-11.5,-15.6,360.0,360.0,77.0,0.0,0.0,-0.0,0,0,0,0,0
2022-01-18 16:58:36.572222,-13.055,-26.415,37.7,52.4,1024.2,76.6,3.6,-11.3,-15.3,360.0,360.0,77.0,0.0,0.0,-0.0,0,0,0,0,0
2022-01-18 16:58:41.680756,-12.799,-26.221,37.6,52.7,1024.2,76.5,3.6,-11.2,-15.5,360.0,360.0,76.0,0.0,0.0,-0.0,0,0,0,0,0
2022-01-18 16:58:46.793527,-12.542,-26.027,37.7,52.4,1024.2,76.3,3.5,-11.3,-15.6,360.0,360.0,76.0,0.0,0.0,-0.0,0,0,0,0,0
2022-01-18 16:58:51.910281,-12.285,-25.834,37.7,52.5,1024.3,76.2,3.7,-11.4,-14.9,360.0,360.0,76.0,0.0,-0.1,-0.0,0,0,0,0,0
2022-01-18 16:58:57.105332,-12.024,-25.637,37.7,52.7,1024.3,76.0,3.6,-11.3,-14.8,360.0,360.0,76.0,0.0,-0.0,-0.0,0,0,0,0,0
2022-01-18 16:59:02.229733,-11.767,-25.445,37.8,52.5,1024.3,75.9,3.7,-11.4,-15.0,360.0,360.0,76.0,0.0,0.0,-0.0,0,0,0,0,0
2022-01-18 16:59:07.303553,-11.512,-25.254,37.7,52.5,1024.2,75.7,3.8,-11.3,-15.4,360.0,360.0,76.0,0.0,0.0,-0.0,0,0,0,0,0
2022-01-18 16:59:12.420688,-11.254,-25.062,37.6,52.2,1024.2,75.5,4.7,-11.5,-15.6,360.0,360.0,75.0,0.0,0.0,-0.0,0,0,0,0,0
2022-01-18 16:59:17.489307,-10.999,-24.872,37.7,52.8,1024.3,75.2,4.2,-11.5,-15.9,360.0,360.0,75.0,0.0,0.0,-0.0,0,0,0,0,0
2022-01-18 16:59:22.568499,-10.743,-24.682,37.6,52.4,1024.3,75.0,4.1,-11.5,-16.2,360.0,360.0,75.0,0.0,-0.0,-0.0,0,0,0,0,0
2022-01-18 16:59:27.692647,-10.485,-24.491,37.8,52.7,1024.2,74.9,4.3,-12.0,-15.9,360.0,360.0,75.0,0.0,0.0,-0.0,0,0,0,0,0
2022-01-18 16:59:32.814544,-10.226,-24.301,37.6,52.3,1024.2,74.7,4.3,-12.1,-15.6,360.0,360.0,75.0,0.0,0.0,-0.0,0,0,0,0,0
2022-01-18 16:59:37.950117,-9.967,-24.11,37.6,52.8,1024.2,74.5,4.5,-11.9,-15.9,360.0,360.0,74.0,0.0,0.0,-0.0,0,0,0,0,0
2022-01-18 16:59:43.054632,-9.709,-23.921,37.7,52.5,1024.3,74.3,4.9,-12.1,-15.4,360.0,360.0,74.0,0.0,0.0,-0.0,0,0,0,0,0
2022-01-18 16:59:48.166921,-9.451,-23.731,37.7,52.5,1024.2,74.0,4.9,-12.3,-15.4,360.0,360.0,74.0,0.0,0.0,-0.0,0,0,0,0,0
2022-01-18 16:59:53.236674,-9.194,-23.544,37.7,52.4,1024.3,73.8,5.4,-12.1,-15.4,360.0,360.0,74.0,0.0,0.0,-0.0,0,0,0,0,0
2022-01-18 16:59:58.357814,-8.935,-23.355,37.7,52.5,1024.2,73.5,5.3,-12.3,-15.0,360.0,360.0,73.0,0.0,0.0,-0.0,0,0,0,0,0
2022-01-18 17:00:03.435658,-8.678,-23.168,37.7,52.4,1024.2,73.2,5.5,-12.2,-14.8,360.0,360.0,73.0,0.0,0.0,-0.0,0,0,0,0,0
2022-01-18 17:00:08.547773,-8.42,-22.98,37.7,52.7,1024.3,72.9,5.4,-12.2,-15.1,360.0,360.0,73.0,0.0,-0.0,-0.0,0,0,0,0,0
2022-01-18 17:00:13.621610,-8.163,-22.793,37.7,52.3,1024.3,72.7,5.2,-12.2,-15.4,360.0,360.0,73.0,0.0,0.0,-0.0,0,0,0,0,0
2022-01-18 17:00:18.697183,-7.905,-22.607,37.8,52.5,1024.3,72.5,5.4,-12.0,-15.4,360.0,360.0,72.0,0.0,0.0,-0.0,0,0,0,0,0
2022-01-18 17:00:23.816876,-7.646,-22.419,37.7,52.5,1024.2,72.2,5.4,-11.8,-15.6,360.0,360.0,72.0,0.0,-0.0,-0.0,0,0,0,0,0
2022-01-18 17:00:28.935704,-7.386,-22.232,37.7,52.7,1024.3,71.9,5.6,-12.2,-15.0,360.0,360.0,72.0,0.0,0.0,-0.0,0,0,0,0,0
2022-01-18 17:00:34.056427,-7.126,-22.045,37.8,52.4,1024.3,71.7,5.7,-12.3,-15.1,360.0,360.0,72.0,0.0,-0.0,-0.0,0,0,0,0,0
2022-01-18 17:00:39.134843,-6.868,-21.859,37.7,52.5,1024.3,71.4,5.9,-12.2,-14.5,360.0,360.0,71.0,0.0,0.0,-0.0,0,0,0,0,0
2022-01-18 17:00:44.273582,-6.608,-21.672,37.8,52.7,1024.3,71.1,6.0,-12.0,-14.4,360.0,360.0,71.0,0.0,0.0,-0.0,0,0,0,0,0
2022-01-18 17:00:49.353238,-6.349,-21.487,37.9,52.5,1024.3,70.8,6.1,-12.3,-15.2,360.0,360.0,71.0,0.0,-0.0,-0.0,0,0,0,0,0
2022-01-18 17:00:54.474051,-6.089,-21.301,37.8,52.5,1024.2,70.5,6.4,-12.3,-14.8,360.0,360.0,70.0,0.0,-0.0,-0.0,0,0,0,0,0
2022-01-18 17:00:59.551234,-5.831,-21.116,37.6,52.5,1024.2,70.2,6.1,-12.3,-14.8,360.0,360.0,70.0,0.0,0.0,-0.0,0,0,0,0,0
2022-01-18 17:01:04.670187,-5.571,-20.93,37.8,52.6,1024.2,70.0,6.2,-12.2,-15.1,360.0,360.0,70.0,0.0,0.0,-0.0,0,0,0,0,0
2022-01-18 17:01:09.742696,-5.313,-20.746,37.8,52.7,1024.3,69.7,6.5,-12.4,-15.0,360.0,360.0,70.0,0.0,-0.0,-0.0,0,0,0,0,0
2022-01-18 17:01:14.834239,-5.054,-20.562,37.7,52.6,1024.2,69.4,6.8,-12.6,-15.0,360.0,360.0,69.0,0.0,0.0,-0.0,0,0,0,0,0
2022-01-18 17:01:19.947808,-4.794,-20.377,37.8,52.3,1024.3,69.1,7.0,-12.7,-15.2,360.0,360.0,69.0,0.0,0.0,-0.0,0,0,0,0,0
2022-01-18 17:01:25.057252,-4.533,-20.192,37.7,52.5,1024.2,68.8,7.0,-12.6,-15.0,360.0,360.0,69.0,0.0,-0.0,-0.0,0,0,0,0,0
2022-01-18 17:01:30.166121,-4.273,-20.007,37.8,52.5,1024.2,68.5,6.9,-12.8,-14.6,360.0,360.0,68.0,0.0,0.0,-0.0,0,0,0,0,0
2022-01-18 17:01:35.232647,-4.015,-19.824,37.8,50.8,1024.2,68.2,7.3,-12.5,-14.8,360.0,360.0,68.0,0.0,0.0,-0.0,0,0,0,0,0
2022-01-18 17:01:40.354642,-3.754,-19.639,37.8,52.4,1024.2,67.9,7.7,-12.2,-14.8,360.0,360.0,68.0,0.0,0.0,-0.0,0,0,0,0,0
2022-01-18 17:01:45.434866,-3.495,-19.456,37.8,52.4,1024.2,67.5,7.8,-12.4,-14.1,360.0,360.0,67.0,0.0,-0.0,-0.0,0,0,0,0,0
2022-01-18 17:01:50.563579,-3.234,-19.271,37.8,52.2,1024.2,67.1,8.0,-12.6,-14.1,360.0,360.0,67.0,0.0,0.0,-0.0,0,0,0,0,0
2022-01-18 17:01:55.712073,-2.972,-19.086,37.7,52.3,1024.2,66.7,8.0,-12.6,-13.4,360.0,360.0,67.0,0.0,0.0,-0.0,0,0,0,0,0
2022-01-18 17:02:00.786298,-2.713,-18.903,37.7,52.7,1024.2,66.4,8.0,-12.7,-13.5,360.0,360.0,66.0,0.0,0.0,-0.0,0,0,0,0,0
2022-01-18 17:02:05.906281,-2.452,-18.719,37.8,52.5,1024.2,66.0,8.2,-12.8,-13.2,360.0,360.0,66.0,0.0,0.0,-0.0,0,0,0,0,0
2022-01-18 17:02:11.028845,-2.191,-18.534,37.7,52.5,1024.2,65.7,8.3,-13.1,-13.4,360.0,360.0,66.0,0.0,0.0,-0.0,0,0,0,0,0
2022-01-18 17:02:16.151632,-1.929,-18.35,37.7,52.5,1024.2,65.4,8.6,-13.0,-13.7,360.0,360.0,65.0,0.0,0.0,-0.0,0,0,0,0,0
2022-01-18 17:02:21.263468,-1.669,-18.166,37.7,52.4,1024.3,65.0,8.8,-12.7,-13.8,360.0,360.0,65.0,0.0,0.0,-0.0,0,0,0,0,0
2022-01-18 17:02:26.407817,-1.406,-17.981,37.8,52.2,1024.3,64.6,8.9,-12.4,-13.7,360.0,360.0,64.0,0.0,-0.0,-0.0,0,0,0,0,0
2022-01-18 17:02:31.483797,-1.147,-17.799,37.7,52.4,1024.3,64.2,9.0,-12.8,-13.6,360.0,360.0,64.0,0.0,-0.0,-0.0,0,0,0,0,1
2022-01-18 17:02:36.605821,-0.886,-17.615,37.8,52.5,1024.3,63.9,8.9,-12.9,-13.4,360.0,360.0,64.0,0.0,-0.0,-0.0,0,0,0,0,1
2022-01-18 17:02:41.682584,-0.627,-17.432,37.7,52.4,1024.3,63.6,8.9,-13.1,-13.4,360.0,360.0,63.0,0.0,0.0,0.0,0,0,0,0,1
2022-01-18 17:02:46.794661,-0.366,-17.249,37.8,52.2,1024.3,63.3,9.3,-13.1,-13.1,360.0,360.0,63.0,0.0,0.0,-0.0,0,0,0,0,1
2022-01-18 17:02:51.867474,-0.107,-17.067,37.8,52.3,1024.3,62.9,9.5,-13.2,-13.0,360.0,360.0,63.0,0.0,0.0,-0.0,0,0,0,0,1
2022-01-18 17:02:56.946964,0.152,-16.884,37.7,52.2,1024.3,62.6,9.5,-13.0,-12.8,360.0,360.0,62.0,0.0,0.0,-0.0,0,0,0,0,1
2022-01-18 17:03:02.071453,0.414,-16.7,37.7,52.4,1024.3,62.2,9.8,-13.1,-13.0,360.0,360.0,62.0,0.0,-0.0,-0.0,0,0,0,0,1
2022-01-18 17:03:07.185280,0.675,-16.516,37.7,52.3,1024.3,61.9,9.8,-13.2,-13.0,360.0,360.0,62.0,0.0,0.0,-0.0,0,0,0,0,0
2022-01-18 17:03:12.306205,0.936,-16.332,37.7,52.4,1024.3,61.5,10.2,-13.2,-12.6,360.0,360.0,61.0,0.0,0.0,-0.0,0,0,0,0,0
2022-01-18 17:03:17.436793,1.198,-16.148,37.8,52.4,1024.3,61.2,10.1,-12.8,-12.0,360.0,360.0,61.0,0.0,0.0,-0.0,0,0,0,0,0
2022-01-18 17:03:22.557824,1.459,-15.964,37.7,52.4,1024.3,60.8,9.9,-12.6,-11.5,360.0,360.0,61.0,0.0,0.0,-0.0,0,0,0,0,0
2022-01-18 17:03:27.632915,1.718,-15.781,37.8,52.3,1024.2,60.4,10.1,-12.6,-11.3,360.0,360.0,60.0,0.0,0.0,-0.0,0,0,0,0,0
2022-01-18 17:03:32.759590,1.98,-15.597,37.8,52.3,1024.2,60.1,10.4,-12.4,-11.2,360.0,360.0,60.0,0.0,0.0,-0.0,0,0,0,0,0
2022-01-18 17:03:37.833551,2.238,-15.414,37.7,52.5,1024.2,59.7,10.8,-12.6,-11.0,360.0,360.0,59.0,0.0,0.0,-0.0,0,0,0,0,0
2022-01-18 17:03:42.956980,2.5,-15.23,37.8,52.4,1024.3,59.3,10.6,-12.6,-11.1,360.0,360.0,59.0,0.0,-0.0,-0.0,0,0,0,0,0
2022-01-18 17:03:48.026139,2.758,-15.047,37.7,52.3,1024.3,58.9,10.9,-12.8,-10.8,360.0,360.0,59.0,0.0,0.0,-0.0,0,0,0,0,0
2022-01-18 17:03:53.097835,3.017,-14.865,37.7,52.4,1024.3,58.5,11.3,-12.9,-10.6,360.0,360.0,58.0,0.0,0.0,-0.0,0,0,0,0,0
2022-01-18 17:03:58.221948,3.278,-14.68,37.7,52.4,1024.2,58.2,11.2,-13.0,-11.1,360.0,360.0,58.0,0.0,0.0,-0.0,0,0,0,0,0
2022-01-18 17:04:03.343031,3.539,-14.495,37.7,52.4,1024.2,57.8,11.3,-12.9,-11.0,360.0,360.0,58.0,0.0,0.0,-0.0,0,0,0,0,0
2022-01-18 17:04:08.535685,3.804,-14.308,37.8,52.5,1024.2,57.5,11.1,-13.2,-10.3,360.0,360.0,57.0,0.0,0.0,-0.0,0,0,0,0,0
2022-01-18 17:04:13.609257,4.063,-14.124,37.8,52.5,1024.2,57.2,11.5,-13.3,-10.1,360.0,360.0,57.0,0.0,0.0,-0.0,0,0,0,0,0
2022-01-18 17:04:18.722735,4.323,-13.94,37.7,52.6,1024.2,56.9,11.4,-13.5,-9.8,360.0,360.0,57.0,0.0,0.0,-0.0,0,0,0,0,0
2022-01-18 17:04:23.796869,4.582,-13.756,37.7,52.5,1024.2,56.6,11.4,-13.3,-10.4,360.0,360.0,56.0,0.0,0.0,-0.0,0,0,0,0,0
2022-01-18 17:04:28.912761,4.842,-13.571,37.8,52.5,1024.2,56.3,11.7,-13.3,-10.3,360.0,360.0,56.0,0.0,0.0,-0.0,0,0,0,0,0
2022-01-18 17:04:33.990816,5.101,-13.387,37.8,52.3,1024.3,56.0,11.9,-13.5,-9.8,360.0,360.0,56.0,0.0,-0.0,-0.0,0,0,0,0,0
2022-01-18 17:04:39.107165,5.361,-13.201,37.8,52.4,1024.3,55.7,12.0,-12.9,-10.1,360.0,360.0,56.0,0.0,0.0,-0.0,0,0,0,0,0
2022-01-18 17:04:44.176661,5.619,-13.017,37.9,52.4,1024.2,55.3,12.2,-12.9,-9.6,360.0,360.0,55.0,0.0,0.0,-0.0,0,0,0,0,0
2022-01-18 17:04:49.258684,5.878,-12.833,37.8,52.5,1024.2,55.0,12.3,-13.2,-9.2,360.0,360.0,55.0,0.0,0.0,-0.0,0,0,0,0,0
2022-01-18 17:04:54.379964,6.138,-12.646,37.9,52.3,1024.2,54.7,12.5,-13.0,-9.2,360.0,360.0,55.0,0.0,-0.0,-0.0,0,0,0,0,0
2022-01-18 17:04:59.505296,6.399,-12.46,37.9,52.2,1024.2,54.3,12.7,-12.9,-8.9,360.0,360.0,54.0,0.0,0.0,-0.0,0,0,0,0,0
2022-01-18 17:05:04.628885,6.659,-12.273,37.7,52.5,1024.2,54.0,12.7,-12.9,-8.5,360.0,360.0,54.0,0.0,0.0,-0.0,0,0,0,0,0
2022-01-18 17:05:09.742904,6.919,-12.086,37.8,52.4,1024.3,53.7,12.8,-12.9,-8.7,360.0,360.0,53.0,0.0,-0.0,-0.0,0,0,0,0,1
2022-01-18 17:05:14.865804,7.18,-11.899,37.8,52.3,1024.3,53.3,12.9,-12.8,-8.3,360.0,360.0,53.0,0.0,0.0,-0.0,0,0,0,0,1
2022-01-18 17:05:19.939052,7.437,-11.713,37.7,52.4,1024.3,53.0,13.1,-12.8,-8.0,360.0,360.0,53.0,0.0,0.0,-0.0,0,0,0,0,0
2022-01-18 17:05:25.063192,7.697,-11.526,37.9,52.2,1024.3,52.6,13.4,-12.6,-7.9,360.0,360.0,52.0,0.0,-0.0,-0.0,0,0,0,0,0
2022-01-18 17:05:30.132924,7.954,-11.34,37.8,52.4,1024.2,52.3,13.4,-12.8,-7.5,360.0,360.0,52.0,0.0,0.0,-0.0,0,0,0,0,0
2022-01-18 17:05:35.207822,8.212,-11.153,37.7,52.5,1024.2,51.9,13.5,-12.9,-7.0,360.0,360.0,52.0,0.0,0.0,-0.0,0,0,0,0,0
2022-01-18 17:05:40.326866,8.471,-10.965,37.8,52.3,1024.2,51.6,13.8,-12.8,-6.9,360.0,360.0,51.0,0.0,0.0,-0.0,0,0,0,0,0
2022-01-18 17:05:45.439795,8.731,-10.776,37.7,52.5,1024.2,51.3,14.3,-13.0,-7.1,360.0,360.0,51.0,0.0,0.0,-0.0,0,0,0,0,0
2022-01-18 17:05:50.551565,8.989,-10.588,37.8,52.3,1024.2,50.9,14.3,-13.5,-6.9,360.0,360.0,51.0,0.0,0.0,-0.0,0,0,0,0,0
2022-01-18 17:05:55.677330,9.249,-10.398,37.8,52.4,1024.3,50.6,14.5,-13.3,-6.5,360.0,0.0,50.0,0.0,-0.0,-0.0,0,0,0,0,0
2022-01-18 17:06:00.832710,9.51,-10.207,37.9,52.5,1024.2,50.3,14.7,-13.1,-6.4,360.0,0.0,50.0,0.0,-0.0,-0.0,0,0,0,0,0
2022-01-18 17:06:05.913490,9.767,-10.019,37.9,52.3,1024.2,50.0,14.6,-13.2,-6.2,360.0,360.0,50.0,0.0,-0.0,-0.0,0,0,0,0,0
2022-01-18 17:06:11.037793,10.026,-9.829,37.9,52.4,1024.2,49.6,15.0,-13.0,-5.8,360.0,360.0,49.0,0.0,0.0,-0.0,0,0,0,0,0
2022-01-18 17:06:16.103954,10.282,-9.64,37.8,52.4,1024.2,49.3,14.7,-12.6,-5.4,360.0,360.0,49.0,0.0,-0.0,-0.0,0,0,0,0,0
2022-01-18 17:06:21.213478,10.54,-9.45,37.8,52.2,1024.2,48.9,14.9,-12.8,-5.3,360.0,360.0,49.0,0.0,0.1,-0.0,0,0,0,0,0
2022-01-18 17:06:26.279270,10.796,-9.26,37.9,52.4,1024.2,48.6,14.8,-12.8,-5.1,360.0,360.0,48.0,0.0,0.0,-0.0,0,0,0,0,0
2022-01-18 17:06:31.359321,11.052,-9.07,37.9,52.3,1024.2,48.3,15.1,-13.0,-4.9,360.0,360.0,48.0,0.0,0.0,-0.0,0,0,0,0,0
2022-01-18 17:06:36.471938,11.31,-8.879,37.9,52.2,1024.2,48.0,15.2,-13.3,-5.6,360.0,360.0,48.0,0.0,-0.0,-0.0,0,0,0,0,0
2022-01-18 17:06:41.585396,11.567,-8.686,37.9,52.5,1024.2,47.7,15.1,-13.3,-4.9,360.0,360.0,48.0,0.0,0.0,-0.0,0,0,0,0,0
2022-01-18 17:06:46.697010,11.825,-8.494,37.8,52.4,1024.2,47.5,15.5,-13.5,-4.4,360.0,360.0,47.0,0.0,0.0,-0.0,0,0,0,0,0
2022-01-18 17:06:51.812587,12.082,-8.301,37.8,52.0,1024.2,47.2,15.4,-13.6,-4.2,360.0,360.0,47.0,0.0,0.0,-0.0,0,0,0,0,0
2022-01-18 17:06:56.936238,12.34,-8.107,37.7,52.6,1024.2,47.0,15.7,-13.6,-3.8,360.0,0.0,47.0,0.0,0.0,-0.0,0,0,0,0,0
2022-01-18 17:07:02.013615,12.595,-7.915,37.9,52.4,1024.2,46.8,15.7,-13.6,-3.6,360.0,0.0,47.0,0.0,0.0,-0.0,0,0,0,0,0
2022-01-18 17:07:07.138983,12.852,-7.72,37.8,52.2,1024.2,46.5,15.7,-13.6,-3.2,360.0,0.0,46.0,0.0,-0.0,-0.0,0,0,0,0,0
2022-01-18 17:07:12.213377,13.107,-7.527,37.8,52.2,1024.2,46.3,16.0,-13.7,-3.0,360.0,0.0,46.0,0.0,0.0,-0.0,0,0,0,0,0
2022-01-18 17:07:17.334466,13.364,-7.332,37.9,52.4,1024.2,46.1,15.9,-13.8,-3.2,360.0,0.0,46.0,0.0,0.0,-0.0,0,0,0,0,0
2022-01-18 17:07:22.404000,13.618,-7.138,37.8,52.4,1024.2,45.9,16.3,-13.5,-2.5,360.0,360.0,46.0,0.0,0.0,-0.0,0,0,0,0,0
2022-01-18 17:07:27.473396,13.872,-6.944,37.8,53.2,1024.2,45.6,16.4,-13.5,-2.6,360.0,0.0,46.0,0.0,-0.0,-0.0,0,0,0,0,0
2022-01-18 17:07:32.582116,14.127,-6.747,37.8,52.4,1024.3,45.4,16.4,-13.7,-2.6,360.0,0.0,45.0,0.0,0.0,-0.0,0,0,0,0,0
2022-01-18 17:07:37.708650,14.384,-6.55,37.8,52.3,1024.3,45.2,16.5,-13.8,-2.3,360.0,360.0,45.0,0.0,-0.0,-0.0,0,0,0,0,0
2022-01-18 17:07:42.829128,14.639,-6.352,37.7,52.2,1024.3,45.0,16.6,-13.7,-1.9,360.0,0.0,45.0,0.0,-0.0,-0.0,0,0,0,0,0
2022-01-18 17:07:47.968819,14.896,-6.153,37.9,52.2,1024.3,44.8,16.5,-13.8,-1.6,360.0,0.0,45.0,0.0,0.0,-0.0,0,0,0,0,0
2022-01-18 17:07:53.085746,15.151,-5.955,37.8,52.5,1024.2,44.6,16.3,-13.7,-1.0,360.0,0.0,44.0,0.0,0.0,-0.0,0,0,0,0,0
2022-01-18 17:07:58.156069,15.404,-5.758,37.8,52.4,1024.2,44.4,16.2,-13.6,-0.7,360.0,0.0,44.0,0.0,-0.0,-0.0,0,0,0,0,0
2022-01-18 17:08:03.269999,15.658,-5.558,37.8,52.4,1024.3,44.2,16.5,-13.6,-0.5,360.0,0.0,44.0,0.0,0.1,-0.0,0,0,0,0,0
2022-01-18 17:08:08.340367,15.911,-5.36,37.9,52.1,1024.2,44.0,16.7,-13.5,-0.3,360.0,0.0,44.0,0.0,-0.0,-0.0,0,0,0,0,0
2022-01-18 17:08:13.555470,16.17,-5.155,37.8,52.2,1024.2,43.8,16.6,-13.6,-0.2,360.0,0.0,44.0,0.0,-0.0,-0.0,0,0,0,0,0
2022-01-18 17:08:18.628555,16.422,-4.955,37.8,52.3,1024.3,43.6,16.8,-13.3,0.1,360.0,0.0,44.0,0.0,0.0,-0.0,0,0,0,0,0
2022-01-18 17:08:23.742369,16.675,-4.754,37.8,52.3,1024.2,43.4,17.0,-13.3,0.2,360.0,0.0,43.0,0.0,-0.0,-0.0,0,0,0,0,0
2022-01-18 17:08:28.872527,16.93,-4.551,37.9,52.3,1024.3,43.2,17.0,-13.4,0.4,360.0,0.0,43.0,0.0,0.0,-0.0,0,0,0,0,0
2022-01-18 17:08:33.999051,17.183,-4.347,37.8,52.4,1024.3,43.0,17.1,-13.5,0.9,360.0,0.0,43.0,0.0,-0.0,-0.0,0,0,0,0,0
2022-01-18 17:08:39.115275,17.436,-4.143,37.8,52.4,1024.2,42.8,17.0,-13.3,1.3,360.0,0.0,43.0,0.0,-0.0,-0.0,0,0,0,0,0
2022-01-18 17:08:44.192422,17.687,-3.941,38.0,52.2,1024.3,42.6,17.3,-13.1,1.6,360.0,0.0,42.0,0.0,0.0,-0.0,0,0,0,0,1
2022-01-18 17:08:49.303469,17.94,-3.736,37.9,52.3,1024.2,42.4,17.4,-12.8,2.4,360.0,0.0,42.0,0.0,-0.0,-0.0,0,0,0,0,0
2022-01-18 17:08:54.376782,18.19,-3.532,37.8,52.2,1024.3,42.1,17.4,-12.9,2.6,360.0,0.0,42.0,0.0,0.0,-0.0,0,0,0,0,0
2022-01-18 17:08:59.493018,18.442,-3.326,37.8,52.3,1024.3,41.9,17.3,-13.2,2.6,360.0,0.0,42.0,0.0,-0.0,-0.0,0,0,0,0,0
2022-01-18 17:09:04.563899,18.691,-3.121,37.7,52.5,1024.3,41.7,17.2,-13.3,2.9,360.0,0.0,42.0,0.0,0.0,-0.0,0,0,0,0,0
2022-01-18 17:09:09.675227,18.942,-2.914,37.9,52.2,1024.3,41.6,17.3,-13.2,3.2,360.0,0.0,41.0,0.0,0.1,-0.0,0,0,0,0,0
2022-01-18 17:09:14.747698,19.191,-2.707,37.8,52.4,1024.3,41.4,17.5,-13.2,3.0,360.0,0.0,41.0,0.0,0.0,-0.0,0,0,0,0,0
2022-01-18 17:09:19.861377,19.442,-2.498,37.8,52.3,1024.3,41.2,17.6,-13.0,3.1,360.0,0.0,41.0,0.0,0.0,-0.0,0,0,0,0,0
2022-01-18 17:09:24.973667,19.692,-2.289,37.8,52.2,1024.3,41.0,17.6,-12.8,3.2,360.0,0.0,41.0,0.0,0.1,-0.0,0,0,0,0,0
2022-01-18 17:09:30.086427,19.942,-2.079,37.8,52.4,1024.3,40.8,17.6,-13.0,3.3,360.0,0.0,41.0,0.0,0.0,-0.0,0,0,0,0,0
2022-01-18 17:09:35.197801,20.192,-1.868,37.9,52.3,1024.3,40.6,17.6,-13.1,4.5,360.0,0.0,41.0,0.0,0.0,-0.0,0,0,0,0,0
2022-01-18 17:09:40.274830,20.44,-1.657,37.9,52.3,1024.3,40.5,17.5,-13.3,5.3,360.0,0.0,40.0,0.0,-0.0,-0.0,0,0,0,0,0
2022-01-18 17:09:45.387494,20.689,-1.445,37.8,52.3,1024.3,40.3,17.7,-13.2,5.9,360.0,0.0,40.0,0.0,0.0,-0.0,0,0,0,0,1
2022-01-18 17:09:50.460859,20.936,-1.234,37.9,52.3,1024.2,40.2,17.7,-12.7,6.3,360.0,0.0,40.0,0.0,0.0,-0.0,0,0,0,0,1
2022-01-18 17:09:55.588305,21.185,-1.019,37.9,52.2,1024.2,40.0,17.4,-12.7,6.4,360.0,0.0,40.0,0.0,0.0,-0.0,0,0,0,0,1
2022-01-18 17:10:00.672693,21.432,-0.805,37.9,52.2,1024.3,39.8,17.6,-12.8,6.5,360.0,0.0,40.0,0.0,0.0,-0.0,0,0,0,0,1
2022-01-18 17:10:05.789806,21.68,-0.59,37.9,52.4,1024.3,39.7,17.7,-12.8,6.3,360.0,0.0,40.0,0.0,-0.0,-0.0,0,0,0,0,1
2022-01-18 17:10:10.903480,21.927,-0.373,37.9,52.3,1024.3,39.5,17.8,-13.0,6.3,360.0,0.0,39.0,0.0,0.0,-0.0,0,0,0,0,1
2022-01-18 17:10:16.014908,22.174,-0.156,37.8,52.3,1024.2,39.4,18.1,-13.1,6.2,360.0,0.0,39.0,0.0,0.0,-0.0,0,0,0,0,1
2022-01-18 17:10:21.126829,22.421,0.062,37.8,52.3,1024.2,39.2,17.9,-13.0,6.7,360.0,0.0,39.0,0.0,0.0,-0.0,0,0,0,0,1
2022-01-18 17:10:26.237466,22.667,0.281,37.8,52.3,1024.2,39.1,17.9,-12.8,6.8,360.0,0.0,39.0,0.0,0.0,-0.0,0,0,0,0,1
2022-01-18 17:10:31.367040,22.914,0.501,37.9,51.6,1024.2,39.0,17.6,-12.7,6.3,360.0,0.0,39.0,0.0,0.0,-0.0,0,0,0,0,1
2022-01-18 17:10:36.615020,23.166,0.727,37.9,52.2,1024.3,38.8,17.5,-12.6,7.2,360.0,0.0,39.0,0.0,-0.0,-0.0,0,0,0,0,1
2022-01-18 17:10:41.730961,23.412,0.949,37.9,52.1,1024.3,38.7,17.5,-12.7,8.1,360.0,0.0,39.0,0.0,-0.0,-0.0,0,0,0,0,0
2022-01-18 17:10:46.807637,23.655,1.17,37.8,52.3,1024.3,38.6,17.6,-12.6,8.3,360.0,0.0,39.0,0.0,0.0,-0.0,0,0,0,0,0
2022-01-18 17:10:51.920843,23.899,1.393,37.9,52.0,1024.3,38.4,17.6,-12.8,8.2,360.0,0.0,38.0,0.0,-0.0,-0.0,0,0,0,0,0
2022-01-18 17:10:56.993648,24.142,1.616,37.9,52.4,1024.3,38.3,17.6,-12.9,8.3,360.0,0.0,38.0,0.0,0.0,-0.0,0,0,0,0,0
2022-01-18 17:11:02.068082,24.383,1.839,37.9,52.0,1024.3,38.3,17.4,-12.6,8.8,360.0,0.0,38.0,0.0,-0.0,-0.0,0,0,0,0,0
2022-01-18 17:11:07.180546,24.627,2.065,37.8,52.4,1024.3,38.1,17.9,-12.3,9.3,360.0,0.0,38.0,0.0,0.0,-0.0,0,0,0,0,0
2022-01-18 17:11:12.255826,24.868,2.29,37.9,52.3,1024.3,38.0,17.8,-12.7,9.3,360.0,0.0,38.0,0.0,-0.0,-0.0,0,0,0,0,0
2022-01-18 17:11:17.368800,25.11,2.518,37.9,52.4,1024.3,37.9,17.8,-12.8,8.9,360.0,0.0,38.0,0.0,0.0,-0.0,0,0,0,0,1
2022-01-18 17:11:22.484712,25.352,2.747,37.9,52.0,1024.3,37.8,17.8,-12.7,9.8,360.0,0.0,38.0,0.0,0.0,-0.0,0,0,0,0,1
2022-01-18 17:11:27.551267,25.592,2.975,38.0,52.2,1024.3,37.7,17.8,-12.9,9.9,360.0,0.0,38.0,0.0,-0.0,-0.0,0,0,0,0,0
2022-01-18 17:11:32.667798,25.833,3.206,37.8,52.2,1024.3,37.6,17.7,-12.8,10.3,359.0,0.0,38.0,0.0,0.0,-0.0,0,0,0,0,0
2022-01-18 17:11:37.741196,26.072,3.437,37.9,52.3,1024.3,37.5,17.7,-12.7,10.6,359.0,0.0,37.0,0.0,-0.0,-0.0,0,0,0,0,0
2022-01-18 17:11:42.852949,26.312,3.67,37.9,52.1,1024.3,37.4,18.1,-12.8,10.5,359.0,0.0,37.0,0.0,-0.1,-0.0,0,0,0,0,0
2022-01-18 17:11:47.965060,26.552,3.904,37.9,52.2,1024.3,37.3,17.9,-12.6,11.4,359.0,0.0,37.0,0.0,0.0,-0.0,0,0,0,0,0
2022-01-18 17:11:53.042788,26.79,4.137,37.9,52.2,1024.3,37.3,17.8,-12.9,11.8,359.0,0.0,37.0,0.0,0.0,-0.0,0,0,0,0,0
2022-01-18 17:11:58.160063,27.029,4.373,38.0,52.3,1024.3,37.2,17.8,-12.9,11.9,359.0,0.0,37.0,0.0,-0.1,-0.0,0,0,0,0,0
2022-01-18 17:12:03.237265,27.265,4.609,37.9,52.1,1024.3,37.1,18.2,-12.6,11.7,359.0,0.0,37.0,0.0,0.0,-0.0,0,0,0,0,0
2022-01-18 17:12:08.351792,27.503,4.848,37.9,52.2,1024.3,37.0,18.1,-12.3,12.0,359.0,0.0,37.0,0.0,0.0,-0.0,0,0,0,0,0
2022-01-18 17:12:13.464119,27.741,5.087,38.0,52.0,1024.3,36.9,17.9,-12.2,12.4,359.0,0.0,37.0,0.0,-0.0,-0.0,0,0,0,0,0
2022-01-18 17:12:18.577007,27.978,5.328,37.9,52.2,1024.3,36.8,17.9,-12.3,12.6,359.0,0.0,37.0,0.0,0.0,-0.0,0,0,0,0,0
2022-01-18 17:12:23.688125,28.214,5.569,37.9,53.3,1024.3,36.7,18.2,-12.7,13.1,359.0,0.0,37.0,0.0,0.0,-0.0,0,0,0,0,0
2022-01-18 17:12:28.770973,28.448,5.811,38.0,52.3,1024.2,36.6,18.1,-12.6,13.8,359.0,0.0,37.0,0.0,0.0,-0.0,0,0,0,0,0
2022-01-18 17:12:33.888900,28.684,6.055,37.9,51.9,1024.3,36.5,18.3,-12.8,13.9,359.0,0.0,36.0,0.0,-0.0,-0.0,0,0,0,0,0
2022-01-18 17:12:38.967490,28.917,6.299,37.9,52.0,1024.3,36.5,18.1,-12.7,14.0,359.0,0.0,36.0,0.0,0.0,-0.0,0,0,0,0,0
2022-01-18 17:12:44.096450,29.152,6.546,37.9,52.3,1024.2,36.4,18.0,-12.5,13.7,359.0,0.0,36.0,0.0,0.0,-0.0,0,0,0,0,0
2022-01-18 17:12:49.220835,29.386,6.794,37.9,52.3,1024.2,36.3,17.8,-12.8,14.3,359.0,0.0,36.0,0.0,0.0,-0.0,0,0,0,0,0
2022-01-18 17:12:54.346168,29.62,7.044,37.9,52.2,1024.3,36.3,17.7,-12.9,14.3,359.0,0.0,36.0,0.0,-0.0,-0.0,0,0,0,0,0
2022-01-18 17:12:59.419353,29.851,7.292,38.0,51.9,1024.3,36.3,17.3,-12.6,14.3,359.0,0.0,36.0,0.0,0.0,-0.0,0,0,0,0,0
2022-01-18 17:13:04.527170,30.083,7.543,37.9,52.1,1024.3,36.2,17.6,-12.2,14.6,359.0,0.0,36.0,0.0,0.0,-0.0,0,0,0,0,0
2022-01-18 17:13:09.648641,30.315,7.796,38.0,52.2,1024.3,36.1,17.7,-12.1,15.1,359.0,0.0,36.0,0.0,0.0,-0.0,0,0,0,0,0
2022-01-18 17:13:14.765896,30.546,8.05,38.0,52.1,1024.3,36.0,17.7,-11.9,15.8,359.0,0.0,36.0,0.0,0.0,-0.0,0,0,0,0,0
2022-01-18 17:13:19.847418,30.775,8.304,38.0,52.1,1024.3,36.0,17.5,-12.1,15.7,359.0,0.0,36.0,0.0,-0.0,-0.0,0,0,0,0,0
2022-01-18 17:13:24.961719,31.005,8.561,37.9,52.2,1024.3,35.9,17.5,-12.3,15.5,359.0,0.0,36.0,0.0,-0.0,-0.0,0,0,0,0,0
2022-01-18 17:13:30.149572,31.237,8.822,38.0,52.2,1024.3,35.8,17.2,-12.1,15.8,359.0,0.0,36.0,0.0,0.0,-0.0,0,0,0,0,0
2022-01-18 17:13:35.226758,31.464,9.08,38.0,52.2,1024.3,35.8,17.1,-12.0,16.0,359.0,0.0,36.0,0.0,-0.0,-0.0,0,0,0,0,0
2022-01-18 17:13:40.353882,31.692,9.341,38.0,51.9,1024.3,35.7,17.3,-12.0,16.5,359.0,0.0,36.0,0.0,0.0,-0.0,0,0,0,0,0
2022-01-18 17:13:45.434092,31.918,9.602,37.9,52.2,1024.3,35.7,17.4,-12.2,16.7,359.0,0.0,36.0,0.0,-0.0,-0.0,0,0,0,0,0
2022-01-18 17:13:50.562270,32.145,9.866,37.9,52.3,1024.3,35.7,17.2,-12.1,17.2,359.0,0.0,36.0,0.0,0.0,-0.0,0,0,0,0,0
2022-01-18 17:13:55.671116,32.371,10.13,38.1,50.8,1024.3,35.6,16.9,-11.8,17.7,359.0,0.0,36.0,0.0,0.1,-0.0,0,0,0,0,0
2022-01-18 17:14:00.737594,32.594,10.394,38.0,52.2,1024.3,35.6,16.8,-11.8,17.5,359.0,0.0,36.0,0.0,0.0,-0.0,0,0,0,0,0
2022-01-18 17:14:05.852964,32.819,10.662,37.9,52.7,1024.3,35.5,16.8,-11.8,17.5,359.0,0.0,36.0,0.0,-0.0,-0.0,0,0,0,0,0
2022-01-18 17:14:10.974223,33.043,10.931,38.0,51.8,1024.3,35.5,16.5,-11.7,17.4,359.0,0.0,36.0,0.0,0.0,-0.0,0,0,0,0,0
2022-01-18 17:14:16.053982,33.265,11.2,38.0,52.2,1024.3,35.5,16.6,-11.5,17.2,359.0,0.0,35.0,0.0,0.0,-0.0,0,0,0,0,0
2022-01-18 17:14:21.177121,33.488,11.473,38.1,52.2,1024.3,35.4,16.5,-11.6,17.4,359.0,0.0,35.0,0.0,0.1,-0.0,0,0,0,0,0
2022-01-18 17:14:26.289544,33.71,11.746,38.0,52.2,1024.3,35.4,16.6,-11.6,17.9,359.0,0.0,35.0,0.0,-0.0,-0.0,0,0,0,0,0
2022-01-18 17:14:31.398624,33.931,12.021,38.0,52.4,1024.3,35.4,16.7,-11.8,18.0,359.0,0.0,35.0,0.0,0.0,-0.0,0,0,0,0,0
2022-01-18 17:14:36.510652,34.151,12.298,38.0,52.0,1024.3,35.3,16.4,-11.5,19.0,359.0,0.0,35.0,0.0,0.0,-0.0,0,0,0,0,0
2022-01-18 17:14:41.584767,34.369,12.574,38.0,52.4,1024.3,35.3,16.4,-11.4,19.0,359.0,0.0,35.0,0.0,-0.0,-0.0,0,0,0,0,0
2022-01-18 17:14:46.808991,34.593,12.86,38.0,52.2,1024.3,35.3,16.3,-11.4,18.8,359.0,0.0,35.0,0.0,0.0,-0.0,0,0,0,0,0
2022-01-18 17:14:51.935504,34.812,13.142,38.0,52.1,1024.3,35.2,16.3,-11.2,19.3,359.0,0.0,35.0,0.0,0.1,-0.0,0,0,0,0,0
2022-01-18 17:14:57.168520,35.034,13.431,38.0,52.1,1024.3,35.2,16.4,-11.3,19.8,359.0,0.0,35.0,0.0,0.0,-0.0,0,0,0,0,0
2022-01-18 17:15:02.287768,35.251,13.716,38.1,52.0,1024.3,35.1,16.3,-11.7,19.8,359.0,0.0,35.0,0.0,0.0,-0.0,0,0,0,0,0
2022-01-18 17:15:07.364971,35.466,14.0,38.0,52.3,1024.3,35.1,16.3,-11.5,20.3,359.0,0.0,35.0,0.0,0.0,-0.0,0,0,0,0,1
2022-01-18 17:15:12.490447,35.681,14.289,38.0,52.0,1024.3,35.1,16.5,-11.2,20.1,359.0,0.0,35.0,0.0,0.0,-0.0,0,0,0,0,1
2022-01-18 17:15:17.603727,35.895,14.578,38.0,52.1,1024.3,35.1,16.3,-11.4,20.0,359.0,0.0,35.0,0.0,-0.0,-0.0,0,0,0,0,0
2022-01-18 17:15:22.750479,36.11,14.871,38.0,51.9,1024.3,35.0,15.9,-11.3,20.6,359.0,0.0,35.0,0.0,0.1,-0.0,0,0,0,0,0
2022-01-18 17:15:27.821302,36.321,15.162,38.1,52.1,1024.3,35.0,15.9,-11.1,21.0,359.0,0.0,35.0,0.0,0.0,-0.0,0,0,0,0,0
2022-01-18 17:15:32.894308,36.531,15.454,38.0,51.8,1024.3,35.0,16.0,-11.0,20.9,359.0,0.0,35.0,0.0,0.0,-0.0,0,0,0,0,0
2022-01-18 17:15:38.020501,36.743,15.751,38.0,52.1,1024.3,35.0,16.1,-11.1,20.7,359.0,0.0,35.0,0.0,0.0,-0.0,0,0,0,0,0
2022-01-18 17:15:43.139990,36.953,16.049,38.0,51.9,1024.3,34.9,16.1,-10.8,21.3,359.0,0.0,35.0,0.0,-0.0,-0.0,0,0,0,0,0
2022-01-18 17:15:48.218411,37.161,16.347,38.0,52.2,1024.3,34.9,16.0,-11.2,21.3,359.0,0.0,35.0,0.0,-0.1,-0.0,0,0,0,0,0
2022-01-18 17:15:53.339619,37.369,16.649,38.0,52.2,1024.3,34.9,16.2,-11.4,21.2,359.0,0.0,35.0,0.0,-0.0,-0.0,0,0,0,0,0
2022-01-18 17:15:58.463395,37.577,16.953,38.0,52.2,1024.3,34.8,16.0,-11.0,21.4,359.0,0.0,35.0,0.0,0.0,-0.0,0,0,0,0,0
2022-01-18 17:16:03.537024,37.782,17.256,38.0,52.2,1024.3,34.8,15.8,-11.1,21.6,359.0,0.0,35.0,0.0,-0.0,-0.0,0,0,0,0,0
2022-01-18 17:16:08.650082,37.988,17.562,38.0,52.1,1024.3,34.8,15.6,-11.1,21.8,359.0,0.0,35.0,0.0,0.0,-0.0,0,0,0,0,0
2022-01-18 17:16:13.723486,38.191,17.869,38.0,52.0,1024.3,34.8,15.8,-11.3,22.3,359.0,0.0,35.0,0.0,-0.0,-0.0,0,0,0,0,0
2022-01-18 17:16:18.832589,38.394,18.179,38.1,51.9,1024.3,34.8,15.5,-11.1,22.0,359.0,0.0,35.0,0.0,0.0,-0.0,0,0,0,0,0
2022-01-18 17:16:23.952977,38.597,18.492,38.0,52.3,1024.2,34.9,14.9,-11.2,22.4,359.0,0.0,35.0,0.0,0.0,-0.0,0,0,0,0,0
2022-01-18 17:16:29.026944,38.798,18.804,38.0,52.2,1024.3,34.9,15.2,-11.0,22.2,359.0,0.0,35.0,0.0,0.0,-0.0,0,0,0,0,0
2022-01-18 17:16:34.139094,38.999,19.12,38.0,52.1,1024.3,34.9,15.3,-11.0,22.6,359.0,0.0,35.0,0.0,-0.0,-0.0,0,0,0,0,0
2022-01-18 17:16:39.215236,39.197,19.436,38.0,52.3,1024.3,34.9,15.2,-11.1,22.7,359.0,0.0,35.0,0.0,-0.0,-0.0,0,0,0,0,0
2022-01-18 17:16:44.333586,39.396,19.756,38.1,52.0,1024.3,35.0,14.8,-11.1,22.9,359.0,0.0,35.0,0.0,-0.0,-0.0,0,0,0,0,0
2022-01-18 17:16:49.454936,39.594,20.078,38.0,52.1,1024.2,35.0,14.8,-10.8,23.0,359.0,0.0,35.0,0.0,0.0,-0.0,0,0,0,0,0
2022-01-18 17:16:54.531676,39.79,20.4,38.0,52.1,1024.2,35.0,15.0,-10.8,23.2,359.0,0.0,35.0,0.0,0.0,-0.0,0,0,0,0,0
2022-01-18 17:16:59.644017,39.985,20.725,38.0,52.0,1024.2,35.0,14.9,-10.8,23.1,359.0,0.0,35.0,0.0,0.0,-0.0,0,0,0,0,0
2022-01-18 17:17:04.765370,40.18,21.054,38.2,52.2,1024.3,35.1,14.4,-10.7,23.8,359.0,0.0,35.0,0.0,0.0,-0.0,0,0,0,0,0
2022-01-18 17:17:09.840135,40.373,21.381,38.0,52.1,1024.3,35.1,14.7,-10.7,23.8,359.0,0.0,35.0,0.0,0.0,-0.0,0,0,0,0,0
2022-01-18 17:17:14.963248,40.566,21.713,38.0,51.8,1024.2,35.1,14.5,-11.1,23.6,359.0,0.0,35.0,0.0,-0.0,-0.0,0,0,0,0,0
2022-01-18 17:17:20.033195,40.756,22.044,38.1,52.1,1024.3,35.2,14.5,-11.2,23.9,359.0,0.0,35.0,0.0,-0.0,-0.0,0,0,0,0,0
2022-01-18 17:17:25.159697,40.947,22.381,38.1,52.2,1024.3,35.2,14.4,-11.0,24.3,359.0,0.0,35.0,0.0,0.0,-0.0,0,0,0,0,0
2022-01-18 17:17:30.271558,41.136,22.719,38.0,52.0,1024.3,35.3,14.0,-11.0,24.7,359.0,0.0,35.0,0.0,0.0,-0.0,0,0,0,0,0
2022-01-18 17:17:35.344359,41.323,23.056,38.0,52.2,1024.2,35.4,14.1,-11.0,25.1,359.0,0.0,35.0,0.0,0.0,-0.0,0,0,0,0,0
2022-01-18 17:17:40.417710,41.508,23.395,38.1,52.0,1024.3,35.4,14.2,-10.8,25.3,359.0,0.0,35.0,0.0,0.0,-0.0,0,0,0,0,0
2022-01-18 17:17:45.544610,41.695,23.74,38.1,52.1,1024.3,35.5,14.3,-10.4,24.9,359.0,0.0,35.0,0.0,0.0,-0.0,0,0,0,0,0
2022-01-18 17:17:50.656430,41.879,24.086,37.9,52.0,1024.2,35.5,14.3,-10.6,25.1,359.0,0.0,35.0,0.0,0.0,-0.0,0,0,0,0,0
2022-01-18 17:17:55.777859,42.063,24.435,38.0,52.0,1024.3,35.5,14.1,-10.5,25.6,359.0,0.0,36.0,0.0,0.0,-0.0,0,0,0,0,0
2022-01-18 17:18:00.890329,42.245,24.785,38.1,52.2,1024.2,35.5,14.0,-10.2,25.6,359.0,0.0,36.0,0.0,0.0,-0.0,0,0,0,0,0
2022-01-18 17:18:05.963211,42.425,25.135,38.1,52.1,1024.2,35.5,14.0,-10.3,25.5,359.0,0.0,36.0,0.0,0.0,-0.0,0,0,0,0,0
2022-01-18 17:18:11.079443,42.605,25.49,38.0,51.9,1024.3,35.5,14.1,-10.5,25.5,359.0,0.0,36.0,0.0,0.0,-0.0,0,0,0,0,0
2022-01-18 17:18:16.149229,42.782,25.844,38.1,52.3,1024.3,35.5,13.9,-10.7,25.5,359.0,0.0,36.0,0.0,0.0,-0.0,0,0,0,0,0
2022-01-18 17:18:21.274723,42.96,26.204,38.0,52.1,1024.2,35.6,13.3,-10.6,25.4,359.0,0.0,36.0,0.0,0.0,-0.0,0,0,0,0,0
2022-01-18 17:18:26.365951,43.135,26.563,38.0,52.1,1024.3,35.7,13.6,-10.6,25.7,359.0,0.0,36.0,0.0,-0.0,-0.0,0,0,0,0,0
2022-01-18 17:18:31.490166,43.311,26.927,38.0,52.0,1024.3,35.7,13.6,-10.6,25.8,359.0,0.0,36.0,0.0,-0.0,-0.0,0,0,0,0,0
2022-01-18 17:18:36.610217,43.484,27.293,38.1,52.0,1024.2,35.8,13.4,-10.7,26.1,359.0,0.0,36.0,0.0,0.0,-0.0,0,0,0,0,0
2022-01-18 17:18:41.676776,43.655,27.658,38.1,51.9,1024.2,35.9,13.5,-10.6,26.5,359.0,0.0,36.0,0.0,-0.1,-0.0,0,0,0,0,0
2022-01-18 17:18:46.792680,43.826,28.028,38.1,52.0,1024.3,36.0,13.2,-10.5,26.5,359.0,0.0,36.0,0.0,-0.0,-0.0,0,0,0,0,0
2022-01-18 17:18:51.917464,43.996,28.401,38.0,52.0,1024.2,36.0,13.1,-10.9,26.1,359.0,0.0,36.0,0.0,-0.0,-0.0,0,0,0,0,0
2022-01-18 17:18:57.038353,44.164,28.776,38.0,52.1,1024.3,36.2,13.1,-10.8,26.3,359.0,0.0,36.0,0.0,0.0,-0.0,0,0,0,0,0
2022-01-18 17:19:02.158379,44.331,29.153,38.0,51.8,1024.3,36.3,12.9,-10.8,26.5,359.0,0.0,36.0,0.0,-0.0,-0.0,0,0,0,0,0
2022-01-18 17:19:07.270396,44.497,29.532,38.0,51.7,1024.2,36.4,12.6,-10.7,27.1,359.0,0.0,36.0,0.0,0.0,-0.0,0,0,0,0,0
2022-01-18 17:19:12.339554,44.659,29.909,37.9,52.3,1024.2,36.5,12.6,-10.5,27.2,359.0,0.0,37.0,0.0,-0.0,-0.0,0,0,0,0,0
2022-01-18 17:19:17.458314,44.822,30.293,38.1,51.7,1024.2,36.6,12.7,-10.8,26.7,359.0,0.0,37.0,0.0,-0.0,-0.0,0,0,0,0,0
2022-01-18 17:19:22.566773,44.983,30.679,38.1,52.0,1024.2,36.7,12.1,-10.5,27.2,359.0,0.0,37.0,0.0,-0.0,-0.0,0,0,0,0,0
2022-01-18 17:19:27.691799,45.143,31.067,38.0,51.8,1024.3,36.9,12.0,-10.4,27.2,359.0,0.0,37.0,0.0,0.0,-0.0,0,0,0,0,0
2022-01-18 17:19:32.772504,45.3,31.455,38.0,51.8,1024.3,37.0,12.2,-10.6,27.4,359.0,0.0,37.0,0.0,-0.0,-0.0,0,0,0,0,0
2022-01-18 17:19:37.885804,45.457,31.848,38.0,52.1,1024.3,37.1,12.3,-10.5,27.3,359.0,0.0,37.0,0.0,-0.0,-0.0,0,0,0,0,0
2022-01-18 17:19:42.998279,45.612,32.242,38.1,52.0,1024.3,37.2,12.4,-10.3,28.4,359.0,0.0,37.0,0.0,0.0,-0.0,0,0,0,0,0
2022-01-18 17:19:48.072847,45.764,32.636,38.1,52.0,1024.3,37.3,12.3,-10.3,28.2,359.0,0.0,37.0,0.0,0.0,-0.0,0,0,0,0,1
2022-01-18 17:19:53.196658,45.917,33.036,38.1,52.1,1024.2,37.3,12.2,-10.0,28.0,359.0,0.0,37.0,0.0,0.0,-0.0,0,0,0,0,1
2022-01-18 17:19:58.316218,46.067,33.438,38.1,52.0,1024.2,37.4,12.2,-10.3,27.5,359.0,0.0,37.0,0.0,0.1,-0.0,0,0,0,0,1
2022-01-18 17:20:03.427935,46.216,33.842,38.1,51.8,1024.3,37.5,11.9,-10.5,28.0,359.0,0.0,38.0,0.0,0.0,-0.0,0,0,0,0,0
2022-01-18 17:20:08.548438,46.364,34.249,38.1,52.1,1024.3,37.6,12.3,-10.7,28.7,359.0,0.0,38.0,0.0,0.0,-0.0,0,0,0,0,0
2022-01-18 17:20:13.673389,46.51,34.658,38.0,51.9,1024.3,37.7,12.1,-10.4,28.8,359.0,0.0,38.0,0.0,-0.0,-0.0,0,0,0,0,0
2022-01-18 17:20:18.746934,46.653,35.066,38.0,51.8,1024.3,37.8,11.9,-10.3,29.3,359.0,0.0,38.0,0.0,0.0,-0.0,0,0,0,0,0
2022-01-18 17:20:23.859456,46.796,35.479,38.0,52.0,1024.3,37.8,11.9,-10.3,28.9,359.0,0.0,38.0,0.0,0.0,-0.0,0,0,0,0,0
2022-01-18 17:20:28.971415,46.936,35.894,37.9,51.8,1024.3,37.9,12.0,-10.4,29.4,359.0,0.0,38.0,0.0,-0.0,-0.0,0,0,0,0,0
2022-01-18 17:20:34.044530,47.074,36.308,38.0,52.1,1024.2,38.0,11.9,-10.6,29.5,359.0,0.0,38.0,0.0,0.0,-0.0,0,0,0,0,0
2022-01-18 17:20:39.124692,47.211,36.725,38.0,51.9,1024.3,38.1,11.7,-10.5,29.5,359.0,0.0,38.0,0.0,-0.0,-0.0,0,0,0,0,0
2022-01-18 17:20:44.238147,47.347,37.147,38.0,51.9,1024.2,38.2,11.7,-10.4,29.5,359.0,0.0,38.0,0.0,0.0,-0.0,0,0,0,0,0
2022-01-18 17:20:49.361914,47.481,37.573,38.1,51.9,1024.3,38.3,11.6,-10.2,29.9,359.0,0.0,38.0,0.0,0.0,-0.0,0,0,0,0,0
2022-01-18 17:20:54.438868,47.613,37.996,38.0,52.0,1024.3,38.4,11.4,-10.0,30.1,359.0,0.0,38.0,0.0,0.0,-0.0,0,0,0,0,0
2022-01-18 17:20:59.559773,47.743,38.426,38.0,52.3,1024.2,38.5,11.3,-10.0,30.1,359.0,0.0,38.0,0.0,0.0,-0.0,0,0,0,0,0
2022-01-18 17:21:04.641832,47.871,38.854,37.9,52.0,1024.3,38.5,11.4,-10.0,29.5,359.0,0.0,39.0,0.0,0.0,-0.0,0,0,0,0,0
2022-01-18 17:21:09.751339,47.998,39.287,38.0,51.9,1024.3,38.6,11.0,-10.3,30.3,359.0,0.0,39.0,0.0,0.0,-0.0,0,0,0,0,0
2022-01-18 17:21:14.831053,48.123,39.72,37.9,52.1,1024.3,38.8,11.1,-10.2,30.3,359.0,0.0,39.0,0.0,0.0,-0.0,0,0,0,0,0
2022-01-18 17:21:19.952000,48.246,40.158,37.9,52.1,1024.2,38.9,11.2,-10.3,30.4,359.0,0.0,39.0,0.0,0.0,-0.0,0,0,0,0,0
2022-01-18 17:21:25.193037,48.371,40.609,38.0,52.2,1024.3,39.0,11.3,-10.2,30.5,359.0,0.0,39.0,0.0,0.0,-0.0,0,0,0,0,0
2022-01-18 17:21:30.305119,48.49,41.051,38.1,51.6,1024.3,39.0,11.2,-10.3,30.9,359.0,0.0,39.0,0.0,0.0,-0.0,0,0,0,0,0
2022-01-18 17:21:35.418541,48.608,41.495,38.0,52.0,1024.3,39.2,10.7,-10.2,31.1,359.0,0.0,39.0,0.0,-0.0,-0.0,0,0,0,0,0
2022-01-18 17:21:40.494827,48.723,41.938,37.9,52.2,1024.3,39.3,10.7,-10.3,31.0,359.0,0.0,39.0,0.0,-0.0,-0.0,0,0,0,0,0
2022-01-18 17:21:45.610421,48.837,42.387,38.0,51.9,1024.3,39.4,10.6,-10.2,30.8,359.0,0.0,40.0,0.0,0.0,-0.0,0,0,0,0,0
2022-01-18 17:21:50.719050,48.949,42.837,38.0,52.0,1024.3,39.6,10.7,-10.0,30.7,359.0,0.0,40.0,0.0,-0.0,-0.0,0,0,0,0,0
2022-01-18 17:21:55.827932,49.059,43.29,38.0,52.2,1024.3,39.7,10.7,-10.1,30.5,359.0,0.0,40.0,0.0,-0.1,-0.0,0,0,0,0,0
2022-01-18 17:22:00.937088,49.167,43.744,37.9,52.3,1024.3,39.8,10.6,-10.6,30.9,359.0,0.0,40.0,0.0,0.0,-0.0,0,0,0,0,0
2022-01-18 17:22:06.049447,49.274,44.201,38.1,52.2,1024.3,39.9,10.4,-10.1,31.1,359.0,0.0,40.0,0.0,0.0,-0.0,0,0,0,0,0
2022-01-18 17:22:11.120395,49.377,44.656,38.0,52.3,1024.3,40.1,10.1,-10.0,31.3,359.0,0.0,40.0,0.0,0.0,-0.0,0,0,0,0,0
2022-01-18 17:22:16.232618,49.479,45.117,38.1,51.8,1024.3,40.2,10.2,-10.0,31.3,359.0,0.0,40.0,0.0,0.0,-0.0,0,0,0,0,0
2022-01-18 17:22:21.328445,49.579,45.578,37.8,52.2,1024.3,40.3,10.2,-10.3,31.4,359.0,0.0,40.0,0.0,0.0,-0.0,0,0,0,0,0
2022-01-18 17:22:26.448466,49.677,46.044,38.0,52.3,1024.3,40.5,10.1,-10.2,31.3,359.0,0.0,41.0,0.0,0.0,-0.0,0,0,0,0,0
2022-01-18 17:22:31.569393,49.774,46.511,37.9,52.0,1024.3,40.6,9.8,-10.1,31.3,359.0,0.0,41.0,0.0,0.0,-0.0,0,0,0,0,0
2022-01-18 17:22:36.689964,49.868,46.98,38.0,51.9,1024.3,40.8,9.8,-10.3,31.5,359.0,0.0,41.0,0.0,0.0,-0.0,0,0,0,0,0
2022-01-18 17:22:41.797801,49.96,47.45,38.1,52.2,1024.3,41.0,9.8,-10.2,31.3,359.0,0.0,41.0,0.0,0.0,-0.0,0,0,0,0,0
2022-01-18 17:22:46.874795,50.049,47.92,38.0,52.0,1024.3,41.1,9.8,-10.3,31.4,359.0,0.0,41.0,0.0,0.0,-0.0,0,0,0,0,0
2022-01-18 17:22:51.995715,50.137,48.394,38.0,52.0,1024.3,41.3,9.9,-10.3,31.2,359.0,0.0,41.0,0.0,-0.0,-0.0,0,0,0,0,0
2022-01-18 17:22:57.117072,50.223,48.871,38.0,52.1,1024.3,41.4,9.5,-10.2,31.5,359.0,0.0,42.0,0.0,0.0,-0.0,0,0,0,0,0
2022-01-18 17:23:02.237199,50.306,49.35,37.9,51.9,1024.2,41.6,9.3,-10.3,31.6,359.0,0.0,42.0,0.0,0.0,-0.0,0,0,0,0,0
2022-01-18 17:23:07.353830,50.388,49.829,38.0,52.1,1024.3,41.8,9.4,-10.1,31.9,359.0,0.0,42.0,0.0,0.0,-0.0,0,0,0,0,0
2022-01-18 17:23:12.470462,50.467,50.311,38.0,52.4,1024.3,42.0,9.1,-10.0,32.7,359.0,0.0,42.0,0.0,-0.0,-0.0,0,0,0,0,0
2022-01-18 17:23:17.540428,50.543,50.79,38.0,52.3,1024.3,42.1,9.2,-10.0,32.7,359.0,0.0,42.0,0.0,-0.0,-0.0,0,0,0,0,0
2022-01-18 17:23:22.663906,50.619,51.275,38.0,52.2,1024.3,42.3,9.1,-10.2,32.7,359.0,0.0,42.0,0.0,-0.0,-0.0,0,0,0,0,0
2022-01-18 17:23:27.775564,50.691,51.761,37.8,52.2,1024.3,42.5,9.1,-10.1,32.7,359.0,0.0,43.0,0.0,0.0,-0.0,0,0,0,0,0
2022-01-18 17:23:32.890393,50.762,52.249,38.0,52.1,1024.3,42.6,9.1,-10.1,32.8,359.0,0.0,43.0,0.0,0.0,-0.0,0,0,0,0,0
2022-01-18 17:23:37.963576,50.829,52.734,38.0,52.0,1024.3,42.8,8.9,-10.2,32.8,359.0,0.0,43.0,0.0,0.0,-0.0,0,0,0,0,0
2022-01-18 17:23:43.075535,50.895,53.224,37.9,51.9,1024.3,43.0,8.9,-10.2,32.8,359.0,0.0,43.0,0.0,0.0,-0.0,0,0,0,0,0
2022-01-18 17:23:48.226374,50.96,53.72,37.9,52.0,1024.2,43.2,8.7,-10.2,33.3,359.0,0.0,43.0,0.0,0.1,-0.0,0,0,0,0,0
2022-01-18 17:23:53.307233,51.021,54.21,38.0,52.0,1024.3,43.4,8.7,-10.1,33.5,359.0,0.0,43.0,0.0,0.0,-0.0,0,0,0,0,0
2022-01-18 17:23:58.421436,51.08,54.705,37.9,52.0,1024.3,43.6,8.7,-10.2,33.4,359.0,0.0,44.0,0.0,0.0,-0.0,0,0,0,0,0
2022-01-18 17:24:03.542257,51.137,55.202,37.9,51.9,1024.3,43.7,8.7,-10.1,33.5,359.0,0.0,44.0,0.0,0.0,-0.0,0,0,0,0,0
2022-01-18 17:24:08.661967,51.192,55.699,38.0,52.1,1024.3,43.9,8.7,-10.3,33.5,359.0,0.0,44.0,0.0,0.0,-0.0,0,0,0,0,0
2022-01-18 17:24:13.774044,51.244,56.198,37.9,52.1,1024.3,44.1,8.5,-10.6,33.5,359.0,0.0,44.0,0.0,-0.1,-0.0,0,0,0,0,0
2022-01-18 17:24:18.889379,51.294,56.698,37.9,51.8,1024.3,44.3,8.3,-10.6,33.9,359.0,0.0,44.0,0.0,0.0,-0.0,0,0,0,0,0
2022-01-18 17:24:23.965932,51.342,57.195,37.9,51.8,1024.3,44.6,8.5,-10.5,34.2,359.0,0.0,45.0,0.0,0.0,-0.0,0,0,0,0,0
2022-01-18 17:24:29.090396,51.387,57.697,37.9,51.7,1024.3,44.8,8.2,-10.7,33.9,359.0,0.0,45.0,0.0,0.0,-0.0,0,0,0,0,0
2022-01-18 17:24:34.210857,51.43,58.201,37.9,52.0,1024.3,45.0,7.8,-10.6,33.8,359.0,0.0,45.0,0.0,-0.0,-0.0,0,0,0,0,0
2022-01-18 17:24:39.287777,51.471,58.701,37.9,52.6,1024.3,45.3,7.5,-10.4,34.0,359.0,0.0,45.0,0.0,-0.0,-0.0,0,0,0,0,0
2022-01-18 17:24:44.446847,51.509,59.21,37.9,52.1,1024.3,45.6,7.3,-10.2,33.7,359.0,0.0,46.0,0.0,0.0,-0.0,0,0,0,0,0
2022-01-18 17:24:49.556478,51.545,59.715,37.9,52.0,1024.3,45.9,7.5,-10.5,33.7,359.0,0.0,46.0,0.0,-0.0,-0.0,0,0,0,0,0
2022-01-18 17:24:54.668575,51.579,60.221,37.8,52.0,1024.2,46.2,7.2,-10.5,34.1,359.0,0.0,46.0,0.0,0.0,-0.0,0,0,0,0,0
2022-01-18 17:24:59.741316,51.61,60.724,37.9,51.9,1024.3,46.5,7.1,-10.8,33.9,359.0,0.0,47.0,0.0,0.0,-0.0,0,0,0,0,0
2022-01-18 17:25:04.860556,51.639,61.232,38.0,52.2,1024.3,46.9,7.3,-11.0,33.9,359.0,0.0,47.0,0.0,0.0,-0.0,0,0,0,0,0
2022-01-18 17:25:09.947718,51.665,61.738,37.9,52.2,1024.3,47.2,7.3,-10.9,34.3,359.0,0.0,47.0,0.0,-0.0,-0.0,0,0,0,0,0
2022-01-18 17:25:15.071708,51.69,62.248,37.9,52.2,1024.3,47.5,7.2,-10.8,34.5,359.0,0.0,48.0,0.0,0.0,-0.0,0,0,0,0,0
2022-01-18 17:25:20.192680,51.711,62.758,37.9,52.1,1024.3,47.8,7.1,-10.4,34.1,359.0,0.0,48.0,0.0,0.0,-0.0,0,0,0,0,0
2022-01-18 17:25:25.377205,51.731,63.275,37.9,52.1,1024.3,48.0,6.9,-10.4,34.5,359.0,0.0,48.0,0.0,0.0,-0.0,0,0,0,0,0
2022-01-18 17:25:30.465746,51.748,63.783,37.9,52.2,1024.3,48.3,7.0,-10.3,35.0,359.0,0.0,48.0,0.0,0.0,-0.0,0,0,0,0,0
2022-01-18 17:25:35.586137,51.762,64.295,37.9,52.0,1024.3,48.5,6.8,-10.6,35.0,359.0,0.0,49.0,0.0,0.0,-0.0,0,0,0,0,0
2022-01-18 17:25:40.709592,51.775,64.807,37.9,52.1,1024.3,48.8,6.7,-10.9,35.1,359.0,0.0,49.0,0.0,0.1,-0.0,0,0,0,0,0
2022-01-18 17:25:45.780032,51.784,65.314,37.9,51.8,1024.3,49.1,6.7,-11.0,35.0,359.0,0.0,49.0,0.0,0.0,-0.0,0,0,0,0,0
2022-01-18 17:25:50.896334,51.791,65.825,37.9,52.0,1024.3,49.4,6.7,-11.1,34.8,359.0,0.0,50.0,0.0,0.0,-0.0,0,0,0,0,0
2022-01-18 17:25:56.017419,51.796,66.338,37.9,52.1,1024.3,49.8,6.7,-11.1,34.6,359.0,0.0,50.0,0.0,0.0,-0.0,0,0,0,0,0
2022-01-18 17:26:01.137001,51.799,66.85,37.9,52.2,1024.3,50.1,6.2,-11.0,34.9,359.0,0.0,50.0,0.0,-0.0,-0.0,0,0,0,0,1
2022-01-18 17:26:06.254246,51.799,67.362,37.9,52.3,1024.3,50.5,5.8,-10.7,35.1,359.0,0.0,51.0,0.0,0.0,-0.0,0,0,0,0,1
2022-01-18 17:26:11.377774,51.797,67.875,38.0,52.2,1024.3,50.8,5.6,-10.3,35.1,359.0,0.0,51.0,0.0,0.0,-0.0,0,0,0,0,0
2022-01-18 17:26:16.446426,51.792,68.382,37.9,51.9,1024.3,51.2,5.4,-10.5,35.3,359.0,0.0,51.0,0.0,0.0,-0.0,0,0,0,0,1
2022-01-18 17:26:21.567224,51.785,68.894,37.9,52.0,1024.3,51.6,5.2,-10.8,35.3,359.0,0.0,52.0,0.0,-0.1,-0.0,0,0,0,0,1
2022-01-18 17:26:26.640856,51.775,69.401,37.9,52.0,1024.3,52.1,5.2,-10.9,35.4,359.0,0.0,52.0,0.0,0.1,-0.0,0,0,0,0,0
2022-01-18 17:26:31.754169,51.763,69.912,37.9,52.1,1024.3,52.5,5.1,-10.8,35.3,359.0,0.0,53.0,0.0,-0.0,-0.0,0,0,0,0,0
2022-01-18 17:26:36.866927,51.749,70.423,37.8,52.2,1024.3,52.9,5.0,-10.8,35.9,359.0,0.0,53.0,0.0,0.0,-0.0,0,0,0,0,0
2022-01-18 17:26:41.978061,51.732,70.933,37.9,52.1,1024.3,53.4,5.2,-10.8,36.0,359.0,0.0,54.0,0.0,0.0,-0.0,0,0,0,0,0
2022-01-18 17:26:47.102248,51.713,71.444,37.8,51.9,1024.3,53.8,4.7,-10.9,35.8,359.0,0.0,54.0,0.0,0.0,-0.0,0,0,0,0,0
2022-01-18 17:26:52.175867,51.692,71.95,37.9,52.1,1024.3,54.2,4.6,-10.9,35.3,359.0,0.0,54.0,0.0,-0.0,-0.0,0,0,0,0,0
2022-01-18 17:26:57.285377,51.668,72.458,37.9,52.2,1024.3,54.7,4.5,-11.1,35.2,359.0,0.0,55.0,0.0,-0.0,-0.0,0,0,0,0,0
2022-01-18 17:27:02.407844,51.641,72.967,38.0,52.1,1024.3,55.2,4.3,-10.7,35.1,359.0,0.0,55.0,0.0,-0.0,-0.0,0,0,0,0,0
2022-01-18 17:27:07.525444,51.613,73.475,37.9,52.0,1024.3,55.6,4.9,-10.8,35.1,359.0,0.0,56.0,0.0,0.0,-0.0,0,0,0,0,0
2022-01-18 17:27:12.647544,51.581,73.983,37.9,52.0,1024.3,56.0,4.1,-10.8,35.2,359.0,0.0,56.0,0.0,0.1,-0.0,0,0,0,0,0
